[
  {
    "id": 1,
    "name": "Goroka Airport",
    "city": "Goroka",
    "country": "Papua New Guinea",
    "iata": "GKA",
    "icao": "AYGA",
    "lat": -6.081689834590001,
    "lng": 145.391998291,
    "alt": 5282,
    "tz_offset": "10",
    "dst": "U",
    "tz": "Pacific/Port_Moresby",
    "type": "airport",
    "source": "OurAirports"
  },
  {
    "id": 2,
    "name": "Madang Airport",
    "city": "Madang",
    "country": "Papua New Guinea",
    "iata": "MAG",
    "icao": "AYMD",
    "lat": -5.20707988739,
    "lng": 145.789001465,
    "alt": 20,
    "tz_offset": "10",
    "dst": "U",
    "tz": "Pacific/Port_Moresby",
    "type": "airport",
    "source": "OurAirports"
  },
  {
    "id": 3,
    "name": "Mount Hagen Kagamuga Airport",
    "city": "Mount Hagen",
    "country": "Papua New Guinea",
    "iata": "HGU",
    "icao": "AYMH",
    "lat": -5.826789855957031,
    "lng": 144.29600524902344,
    "alt": 5388,
    "tz_offset": "10",
    "dst": "U",
    "tz": "Pacific/Port_Moresby",
    "type": "airport",
    "source": "OurAirports"
  },
  {
    "id": 4,
    "name": "Nadzab Airport",
    "city": "Nadzab",
    "country": "Papua New Guinea",
    "iata": "LAE",
    "icao": "AYNZ",
    "lat": -6.569803,
    "lng": 146.725977,
    "alt": 239,
    "tz_offset": "10",
    "dst": "U",
    "tz": "Pacific/Port_Moresby",
    "type": "airport",
    "source": "OurAirports"
  },
  {
    "id": 5,
    "name": "Port Moresby Jacksons International Airport",
    "city": "Port Moresby",
    "country": "Papua New Guinea",
    "iata": "POM",
    "icao": "AYPY",
    "lat": -9.44338035583496,
    "lng": 147.22000122070312,
    "alt": 146,
    "tz_offset": "10",
    "dst": "U",
    "tz": "Pacific/Port_Moresby",
    "type": "airport",
    "source": "OurAirports"
  },
  {
    "id": 6,
    "name": "Wewak International Airport",
    "city": "Wewak",
    "country": "Papua New Guinea",
    "iata": "WWK",
    "icao": "AYWK",
    "lat": -3.58383011818,
    "lng": 143.669006348,
    "alt": 19,
    "tz_offset": "10",
    "dst": "U",
    "tz": "Pacific/Port_Moresby",
    "type": "airport",
    "source": "OurAirports"
  },
  {
    "id": 7,
    "name": "Narsarsuaq Airport",
    "city": "Narssarssuaq",
    "country": "Greenland",
    "iata": "UAK",
    "icao": "BGBW",
    "lat": 61.1604995728,
    "lng": -45.4259986877,
    "alt": 112,
    "tz_offset": "-3",
    "dst": "E",
    "tz": "America/Godthab",
    "type": "airport",
    "source": "OurAirports"
  },
  {
    "id": 8,
    "name": "Godthaab / Nuuk Airport",
    "city": "Godthaab",
    "country": "Greenland",
    "iata": "GOH",
    "icao": "BGGH",
    "lat": 64.19090271,
    "lng": -51.6781005859,
    "alt": 283,
    "tz_offset": "-3",
    "dst": "E",
    "tz": "America/Godthab",
    "type": "airport",
    "source": "OurAirports"
  },
  {
    "id": 9,
    "name": "Kangerlussuaq Airport",
    "city": "Sondrestrom",
    "country": "Greenland",
    "iata": "SFJ",
    "icao": "BGSF",
    "lat": 67.0122218992,
    "lng": -50.7116031647,
    "alt": 165,
    "tz_offset": "-3",
    "dst": "E",
    "tz": "America/Godthab",
    "type": "airport",
    "source": "OurAirports"
  },
  {
    "id": 10,
    "name": "Thule Air Base",
    "city": "Thule",
    "country": "Greenland",
    "iata": "THU",
    "icao": "BGTL",
    "lat": 76.5311965942,
    "lng": -68.7032012939,
    "alt": 251,
    "tz_offset": "-4",
    "dst": "E",
    "tz": "America/Thule",
    "type": "airport",
    "source": "OurAirports"
  },
  {
    "id": 11,
    "name": "Akureyri Airport",
    "city": "Akureyri",
    "country": "Iceland",
    "iata": "AEY",
    "icao": "BIAR",
    "lat": 65.66000366210938,
    "lng": -18.07270050048828,
    "alt": 6,
    "tz_offset": "0",
    "dst": "N",
    "tz": "Atlantic/Reykjavik",
    "type": "airport",
    "source": "OurAirports"
  },
  {
    "id": 12,
    "name": "Egilssta\u00f0ir Airport",
    "city": "Egilsstadir",
    "country": "Iceland",
    "iata": "EGS",
    "icao": "BIEG",
    "lat": 65.2833023071289,
    "lng": -14.401399612426758,
    "alt": 76,
    "tz_offset": "0",
    "dst": "N",
    "tz": "Atlantic/Reykjavik",
    "type": "airport",
    "source": "OurAirports"
  },
  {
    "id": 13,
    "name": "Hornafj\u00f6r\u00f0ur Airport",
    "city": "Hofn",
    "country": "Iceland",
    "iata": "HFN",
    "icao": "BIHN",
    "lat": 64.295601,
    "lng": -15.2272,
    "alt": 24,
    "tz_offset": "0",
    "dst": "N",
    "tz": "Atlantic/Reykjavik",
    "type": "airport",
    "source": "OurAirports"
  },
  {
    "id": 14,
    "name": "H\u00fasav\u00edk Airport",
    "city": "Husavik",
    "country": "Iceland",
    "iata": "HZK",
    "icao": "BIHU",
    "lat": 65.952301,
    "lng": -17.426001,
    "alt": 48,
    "tz_offset": "0",
    "dst": "N",
    "tz": "Atlantic/Reykjavik",
    "type": "airport",
    "source": "OurAirports"
  },
  {
    "id": 15,
    "name": "\u00cdsafj\u00f6r\u00f0ur Airport",
    "city": "Isafjordur",
    "country": "Iceland",
    "iata": "IFJ",
    "icao": "BIIS",
    "lat": 66.05809783935547,
    "lng": -23.135299682617188,
    "alt": 8,
    "tz_offset": "0",
    "dst": "N",
    "tz": "Atlantic/Reykjavik",
    "type": "airport",
    "source": "OurAirports"
  },
  {
    "id": 16,
    "name": "Keflavik International Airport",
    "city": "Keflavik",
    "country": "Iceland",
    "iata": "KEF",
    "icao": "BIKF",
    "lat": 63.985000610352,
    "lng": -22.605600357056,
    "alt": 171,
    "tz_offset": "0",
    "dst": "N",
    "tz": "Atlantic/Reykjavik",
    "type": "airport",
    "source": "OurAirports"
  },
  {
    "id": 17,
    "name": "Patreksfj\u00f6r\u00f0ur Airport",
    "city": "Patreksfjordur",
    "country": "Iceland",
    "iata": "PFJ",
    "icao": "BIPA",
    "lat": 65.555801,
    "lng": -23.965,
    "alt": 11,
    "tz_offset": "0",
    "dst": "N",
    "tz": "Atlantic/Reykjavik",
    "type": "airport",
    "source": "OurAirports"
  },
  {
    "id": 18,
    "name": "Reykjavik Airport",
    "city": "Reykjavik",
    "country": "Iceland",
    "iata": "RKV",
    "icao": "BIRK",
    "lat": 64.1299972534,
    "lng": -21.9405994415,
    "alt": 48,
    "tz_offset": "0",
    "dst": "N",
    "tz": "Atlantic/Reykjavik",
    "type": "airport",
    "source": "OurAirports"
  },
  {
    "id": 19,
    "name": "Siglufj\u00f6r\u00f0ur Airport",
    "city": "Siglufjordur",
    "country": "Iceland",
    "iata": "SIJ",
    "icao": "BISI",
    "lat": 66.133301,
    "lng": -18.9167,
    "alt": 10,
    "tz_offset": "0",
    "dst": "N",
    "tz": "Atlantic/Reykjavik",
    "type": "airport",
    "source": "OurAirports"
  },
  {
    "id": 20,
    "name": "Vestmannaeyjar Airport",
    "city": "Vestmannaeyjar",
    "country": "Iceland",
    "iata": "VEY",
    "icao": "BIVM",
    "lat": 63.42430114746094,
    "lng": -20.27890014648437,
    "alt": 326,
    "tz_offset": "0",
    "dst": "N",
    "tz": "Atlantic/Reykjavik",
    "type": "airport",
    "source": "OurAirports"
  },
  {
    "id": 21,
    "name": "Sault Ste Marie Airport",
    "city": "Sault Sainte Marie",
    "country": "Canada",
    "iata": "YAM",
    "icao": "CYAM",
    "lat": 46.48500061035156,
    "lng": -84.5093994140625,
    "alt": 630,
    "tz_offset": "-5",
    "dst": "A",
    "tz": "America/Toronto",
    "type": "airport",
    "source": "OurAirports"
  },
  {
    "id": 24,
    "name": "St. Anthony Airport",
    "city": "St. Anthony",
    "country": "Canada",
    "iata": "YAY",
    "icao": "CYAY",
    "lat": 51.3918991089,
    "lng": -56.083099365200006,
    "alt": 108,
    "tz_offset": "-3.5",
    "dst": "A",
    "tz": "America/St_Johns",
    "type": "airport",
    "source": "OurAirports"
  },
  {
    "id": 25,
    "name": "Tofino / Long Beach Airport",
    "city": "Tofino",
    "country": "Canada",
    "iata": "YAZ",
    "icao": "CYAZ",
    "lat": 49.079833,
    "lng": -125.775583,
    "alt": 80,
    "tz_offset": "-8",
    "dst": "A",
    "tz": "America/Vancouver",
    "type": "airport",
    "source": "OurAirports"
  },
  {
    "id": 26,
    "name": "Kugaaruk Airport",
    "city": "Pelly Bay",
    "country": "Canada",
    "iata": "YBB",
    "icao": "CYBB",
    "lat": 68.534401,
    "lng": -89.808098,
    "alt": 56,
    "tz_offset": "-7",
    "dst": "A",
    "tz": "America/Edmonton",
    "type": "airport",
    "source": "OurAirports"
  },
  {
    "id": 27,
    "name": "Baie Comeau Airport",
    "city": "Baie Comeau",
    "country": "Canada",
    "iata": "YBC",
    "icao": "CYBC",
    "lat": 49.13249969482422,
    "lng": -68.20439910888672,
    "alt": 71,
    "tz_offset": "-5",
    "dst": "A",
    "tz": "America/Toronto",
    "type": "airport",
    "source": "OurAirports"
  },
  {
    "id": 28,
    "name": "CFB Bagotville",
    "city": "Bagotville",
    "country": "Canada",
    "iata": "YBG",
    "icao": "CYBG",
    "lat": 48.33060073852539,
    "lng": -70.99639892578125,
    "alt": 522,
    "tz_offset": "-5",
    "dst": "A",
    "tz": "America/Toronto",
    "type": "airport",
    "source": "OurAirports"
  },
  {
    "id": 29,
    "name": "Baker Lake Airport",
    "city": "Baker Lake",
    "country": "Canada",
    "iata": "YBK",
    "icao": "CYBK",
    "lat": 64.29889678960001,
    "lng": -96.077796936,
    "alt": 59,
    "tz_offset": "-6",
    "dst": "A",
    "tz": "America/Winnipeg",
    "type": "airport",
    "source": "OurAirports"
  },
  {
    "id": 30,
    "name": "Campbell River Airport",
    "city": "Campbell River",
    "country": "Canada",
    "iata": "YBL",
    "icao": "CYBL",
    "lat": 49.950801849365234,
    "lng": -125.27100372314452,
    "alt": 346,
    "tz_offset": "-8",
    "dst": "A",
    "tz": "America/Vancouver",
    "type": "airport",
    "source": "OurAirports"
  },
  {
    "id": 31,
    "name": "Brandon Municipal Airport",
    "city": "Brandon",
    "country": "Canada",
    "iata": "YBR",
    "icao": "CYBR",
    "lat": 49.91,
    "lng": -99.951897,
    "alt": 1343,
    "tz_offset": "-6",
    "dst": "A",
    "tz": "America/Winnipeg",
    "type": "airport",
    "source": "OurAirports"
  },
  {
    "id": 32,
    "name": "Cambridge Bay Airport",
    "city": "Cambridge Bay",
    "country": "Canada",
    "iata": "YCB",
    "icao": "CYCB",
    "lat": 69.1081008911,
    "lng": -105.138000488,
    "alt": 90,
    "tz_offset": "-7",
    "dst": "A",
    "tz": "America/Edmonton",
    "type": "airport",
    "source": "OurAirports"
  },
  {
    "id": 33,
    "name": "Nanaimo Airport",
    "city": "Nanaimo",
    "country": "Canada",
    "iata": "YCD",
    "icao": "CYCD",
    "lat": 49.0549702249,
    "lng": -123.869862556,
    "alt": 92,
    "tz_offset": "-8",
    "dst": "A",
    "tz": "America/Vancouver",
    "type": "airport",
    "source": "OurAirports"
  },
  {
    "id": 34,
    "name": "Castlegar/West Kootenay Regional Airport",
    "city": "Castlegar",
    "country": "Canada",
    "iata": "YCG",
    "icao": "CYCG",
    "lat": 49.2963981628,
    "lng": -117.632003784,
    "alt": 1624,
    "tz_offset": "-8",
    "dst": "A",
    "tz": "America/Vancouver",
    "type": "airport",
    "source": "OurAirports"
  },
  {
    "id": 35,
    "name": "Miramichi Airport",
    "city": "Chatham",
    "country": "Canada",
    "iata": "YCH",
    "icao": "CYCH",
    "lat": 47.007801,
    "lng": -65.449203,
    "alt": 108,
    "tz_offset": "-4",
    "dst": "A",
    "tz": "America/Halifax",
    "type": "airport",
    "source": "OurAirports"
  },
  {
    "id": 36,
    "name": "Charlo Airport",
    "city": "Charlo",
    "country": "Canada",
    "iata": "YCL",
    "icao": "CYCL",
    "lat": 47.990799,
    "lng": -66.330299,
    "alt": 132,
    "tz_offset": "-4",
    "dst": "A",
    "tz": "America/Halifax",
    "type": "airport",
    "source": "OurAirports"
  },
  {
    "id": 37,
    "name": "Kugluktuk Airport",
    "city": "Coppermine",
    "country": "Canada",
    "iata": "YCO",
    "icao": "CYCO",
    "lat": 67.816704,
    "lng": -115.143997,
    "alt": 74,
    "tz_offset": "-7",
    "dst": "A",
    "tz": "America/Edmonton",
    "type": "airport",
    "source": "OurAirports"
  },
  {
    "id": 38,
    "name": "Coronation Airport",
    "city": "Coronation",
    "country": "Canada",
    "iata": "YCT",
    "icao": "CYCT",
    "lat": 52.0750007629,
    "lng": -111.444999695,
    "alt": 2595,
    "tz_offset": "-7",
    "dst": "A",
    "tz": "America/Edmonton",
    "type": "airport",
    "source": "OurAirports"
  },
  {
    "id": 39,
    "name": "Chilliwack Airport",
    "city": "Chilliwack",
    "country": "Canada",
    "iata": "YCW",
    "icao": "CYCW",
    "lat": 49.1528015137,
    "lng": -121.939002991,
    "alt": 32,
    "tz_offset": "-8",
    "dst": "A",
    "tz": "America/Vancouver",
    "type": "airport",
    "source": "OurAirports"
  },
  {
    "id": 40,
    "name": "Clyde River Airport",
    "city": "Clyde River",
    "country": "Canada",
    "iata": "YCY",
    "icao": "CYCY",
    "lat": 70.4860992432,
    "lng": -68.5167007446,
    "alt": 87,
    "tz_offset": "-5",
    "dst": "A",
    "tz": "America/Toronto",
    "type": "airport",
    "source": "OurAirports"
  },
  {
    "id": 41,
    "name": "Coral Harbour Airport",
    "city": "Coral Harbour",
    "country": "Canada",
    "iata": "YZS",
    "icao": "CYZS",
    "lat": 64.1932983398,
    "lng": -83.3593978882,
    "alt": 210,
    "tz_offset": "-5",
    "dst": "A",
    "tz": "America/Coral_Harbour",
    "type": "airport",
    "source": "OurAirports"
  },
  {
    "id": 42,
    "name": "Dawson City Airport",
    "city": "Dawson",
    "country": "Canada",
    "iata": "YDA",
    "icao": "CYDA",
    "lat": 64.04309844970703,
    "lng": -139.1280059814453,
    "alt": 1215,
    "tz_offset": "-8",
    "dst": "A",
    "tz": "America/Vancouver",
    "type": "airport",
    "source": "OurAirports"
  },
  {
    "id": 43,
    "name": "Burwash Airport",
    "city": "Burwash",
    "country": "Canada",
    "iata": "YDB",
    "icao": "CYDB",
    "lat": 61.37110137939453,
    "lng": -139.04100036621094,
    "alt": 2647,
    "tz_offset": "-8",
    "dst": "A",
    "tz": "America/Vancouver",
    "type": "airport",
    "source": "OurAirports"
  },
  {
    "id": 45,
    "name": "Deer Lake Airport",
    "city": "Deer Lake",
    "country": "Canada",
    "iata": "YDF",
    "icao": "CYDF",
    "lat": 49.21080017089844,
    "lng": -57.39139938354492,
    "alt": 72,
    "tz_offset": "-3.5",
    "dst": "A",
    "tz": "America/St_Johns",
    "type": "airport",
    "source": "OurAirports"
  },
  {
    "id": 46,
    "name": "Dease Lake Airport",
    "city": "Dease Lake",
    "country": "Canada",
    "iata": "YDL",
    "icao": "CYDL",
    "lat": 58.4221992493,
    "lng": -130.031997681,
    "alt": 2600,
    "tz_offset": "-8",
    "dst": "A",
    "tz": "America/Vancouver",
    "type": "airport",
    "source": "OurAirports"
  },
  {
    "id": 47,
    "name": "Dauphin Barker Airport",
    "city": "Dauphin",
    "country": "Canada",
    "iata": "YDN",
    "icao": "CYDN",
    "lat": 51.10079956054688,
    "lng": -100.052001953125,
    "alt": 999,
    "tz_offset": "-6",
    "dst": "A",
    "tz": "America/Winnipeg",
    "type": "airport",
    "source": "OurAirports"
  },
  {
    "id": 48,
    "name": "Dawson Creek Airport",
    "city": "Dawson Creek",
    "country": "Canada",
    "iata": "YDQ",
    "icao": "CYDQ",
    "lat": 55.7422981262207,
    "lng": -120.18299865722656,
    "alt": 2148,
    "tz_offset": "-7",
    "dst": "A",
    "tz": "America/Dawson_Creek",
    "type": "airport",
    "source": "OurAirports"
  },
  {
    "id": 49,
    "name": "Edmonton International Airport",
    "city": "Edmonton",
    "country": "Canada",
    "iata": "YEG",
    "icao": "CYEG",
    "lat": 53.3097000122,
    "lng": -113.580001831,
    "alt": 2373,
    "tz_offset": "-7",
    "dst": "A",
    "tz": "America/Edmonton",
    "type": "airport",
    "source": "OurAirports"
  },
  {
    "id": 50,
    "name": "Arviat Airport",
    "city": "Eskimo Point",
    "country": "Canada",
    "iata": "YEK",
    "icao": "CYEK",
    "lat": 61.0942001343,
    "lng": -94.0708007812,
    "alt": 32,
    "tz_offset": "-6",
    "dst": "A",
    "tz": "America/Winnipeg",
    "type": "airport",
    "source": "OurAirports"
  },
  {
    "id": 51,
    "name": "Estevan Airport",
    "city": "Estevan",
    "country": "Canada",
    "iata": "YEN",
    "icao": "CYEN",
    "lat": 49.2103004456,
    "lng": -102.966003418,
    "alt": 1905,
    "tz_offset": "-6",
    "dst": "N",
    "tz": "America/Regina",
    "type": "airport",
    "source": "OurAirports"
  },
  {
    "id": 52,
    "name": "Edson Airport",
    "city": "Edson",
    "country": "Canada",
    "iata": "YET",
    "icao": "CYET",
    "lat": 53.5788993835,
    "lng": -116.464996338,
    "alt": 3043,
    "tz_offset": "-7",
    "dst": "A",
    "tz": "America/Edmonton",
    "type": "airport",
    "source": "OurAirports"
  },
  {
    "id": 53,
    "name": "Eureka Airport",
    "city": "Eureka",
    "country": "Canada",
    "iata": "YEU",
    "icao": "CYEU",
    "lat": 79.9946975708,
    "lng": -85.814201355,
    "alt": 256,
    "tz_offset": "-6",
    "dst": "A",
    "tz": "America/Winnipeg",
    "type": "airport",
    "source": "OurAirports"
  },
  {
    "id": 54,
    "name": "Inuvik Mike Zubko Airport",
    "city": "Inuvik",
    "country": "Canada",
    "iata": "YEV",
    "icao": "CYEV",
    "lat": 68.30419921880001,
    "lng": -133.483001709,
    "alt": 224,
    "tz_offset": "-7",
    "dst": "A",
    "tz": "America/Edmonton",
    "type": "airport",
    "source": "OurAirports"
  },
  {
    "id": 55,
    "name": "Iqaluit Airport",
    "city": "Iqaluit",
    "country": "Canada",
    "iata": "YFB",
    "icao": "CYFB",
    "lat": 63.756402,
    "lng": -68.555801,
    "alt": 110,
    "tz_offset": "-5",
    "dst": "A",
    "tz": "America/Toronto",
    "type": "airport",
    "source": "OurAirports"
  },
  {
    "id": 56,
    "name": "Fredericton Airport",
    "city": "Fredericton",
    "country": "Canada",
    "iata": "YFC",
    "icao": "CYFC",
    "lat": 45.868900299072266,
    "lng": -66.53720092773438,
    "alt": 68,
    "tz_offset": "-4",
    "dst": "A",
    "tz": "America/Halifax",
    "type": "airport",
    "source": "OurAirports"
  },
  {
    "id": 57,
    "name": "Forestville Airport",
    "city": "Forestville",
    "country": "Canada",
    "iata": "YFE",
    "icao": "CYFE",
    "lat": 48.74610137939453,
    "lng": -69.09719848632812,
    "alt": 293,
    "tz_offset": "-5",
    "dst": "A",
    "tz": "America/Toronto",
    "type": "airport",
    "source": "OurAirports"
  },
  {
    "id": 58,
    "name": "Flin Flon Airport",
    "city": "Flin Flon",
    "country": "Canada",
    "iata": "YFO",
    "icao": "CYFO",
    "lat": 54.6781005859375,
    "lng": -101.68199920654295,
    "alt": 997,
    "tz_offset": "-6",
    "dst": "A",
    "tz": "America/Winnipeg",
    "type": "airport",
    "source": "OurAirports"
  },
  {
    "id": 59,
    "name": "Fort Resolution Airport",
    "city": "Fort Resolution",
    "country": "Canada",
    "iata": "YFR",
    "icao": "CYFR",
    "lat": 61.1808013916,
    "lng": -113.690002441,
    "alt": 526,
    "tz_offset": "-7",
    "dst": "A",
    "tz": "America/Edmonton",
    "type": "airport",
    "source": "OurAirports"
  },
  {
    "id": 60,
    "name": "Fort Simpson Airport",
    "city": "Fort Simpson",
    "country": "Canada",
    "iata": "YFS",
    "icao": "CYFS",
    "lat": 61.76020050048828,
    "lng": -121.23699951171876,
    "alt": 555,
    "tz_offset": "-7",
    "dst": "A",
    "tz": "America/Edmonton",
    "type": "airport",
    "source": "OurAirports"
  },
  {
    "id": 61,
    "name": "Kingston Norman Rogers Airport",
    "city": "Kingston",
    "country": "Canada",
    "iata": "YGK",
    "icao": "CYGK",
    "lat": 44.22529983520508,
    "lng": -76.5969009399414,
    "alt": 305,
    "tz_offset": "-5",
    "dst": "A",
    "tz": "America/Toronto",
    "type": "airport",
    "source": "OurAirports"
  },
  {
    "id": 62,
    "name": "La Grande Rivi\u00e8re Airport",
    "city": "La Grande Riviere",
    "country": "Canada",
    "iata": "YGL",
    "icao": "CYGL",
    "lat": 53.625301361083984,
    "lng": -77.7042007446289,
    "alt": 639,
    "tz_offset": "-5",
    "dst": "A",
    "tz": "America/Toronto",
    "type": "airport",
    "source": "OurAirports"
  },
  {
    "id": 63,
    "name": "Gasp\u00e9 (Michel-Pouliot) Airport",
    "city": "Gaspe",
    "country": "Canada",
    "iata": "YGP",
    "icao": "CYGP",
    "lat": 48.7752990723,
    "lng": -64.4785995483,
    "alt": 112,
    "tz_offset": "-5",
    "dst": "A",
    "tz": "America/Toronto",
    "type": "airport",
    "source": "OurAirports"
  },
  {
    "id": 64,
    "name": "Geraldton Greenstone Regional Airport",
    "city": "Geraldton",
    "country": "Canada",
    "iata": "YGQ",
    "icao": "CYGQ",
    "lat": 49.77830123901367,
    "lng": -86.93939971923828,
    "alt": 1144,
    "tz_offset": "-5",
    "dst": "A",
    "tz": "America/Toronto",
    "type": "airport",
    "source": "OurAirports"
  },
  {
    "id": 65,
    "name": "\u00celes-de-la-Madeleine Airport",
    "city": "Iles De La Madeleine",
    "country": "Canada",
    "iata": "YGR",
    "icao": "CYGR",
    "lat": 47.42470169067383,
    "lng": -61.778099060058594,
    "alt": 35,
    "tz_offset": "-5",
    "dst": "A",
    "tz": "America/Toronto",
    "type": "airport",
    "source": "OurAirports"
  },
  {
    "id": 66,
    "name": "Hudson Bay Airport",
    "city": "Hudson Bay",
    "country": "Canada",
    "iata": "YHB",
    "icao": "CYHB",
    "lat": 52.8166999817,
    "lng": -102.310997009,
    "alt": 1175,
    "tz_offset": "-6",
    "dst": "N",
    "tz": "America/Regina",
    "type": "airport",
    "source": "OurAirports"
  },
  {
    "id": 67,
    "name": "Dryden Regional Airport",
    "city": "Dryden",
    "country": "Canada",
    "iata": "YHD",
    "icao": "CYHD",
    "lat": 49.831699,
    "lng": -92.744202,
    "alt": 1354,
    "tz_offset": "-6",
    "dst": "A",
    "tz": "America/Winnipeg",
    "type": "airport",
    "source": "OurAirports"
  },
  {
    "id": 68,
    "name": "Ulukhaktok Holman Airport",
    "city": "Holman Island",
    "country": "Canada",
    "iata": "YHI",
    "icao": "CYHI",
    "lat": 70.76280212402344,
    "lng": -117.80599975585938,
    "alt": 117,
    "tz_offset": "-7",
    "dst": "A",
    "tz": "America/Edmonton",
    "type": "airport",
    "source": "OurAirports"
  },
  {
    "id": 69,
    "name": "Gjoa Haven Airport",
    "city": "Gjoa Haven",
    "country": "Canada",
    "iata": "YHK",
    "icao": "CYHK",
    "lat": 68.635597229,
    "lng": -95.8497009277,
    "alt": 152,
    "tz_offset": "-7",
    "dst": "A",
    "tz": "America/Edmonton",
    "type": "airport",
    "source": "OurAirports"
  },
  {
    "id": 70,
    "name": "John C. Munro Hamilton International Airport",
    "city": "Hamilton",
    "country": "Canada",
    "iata": "YHM",
    "icao": "CYHM",
    "lat": 43.1735992432,
    "lng": -79.93499755859999,
    "alt": 780,
    "tz_offset": "-5",
    "dst": "A",
    "tz": "America/Toronto",
    "type": "airport",
    "source": "OurAirports"
  },
  {
    "id": 71,
    "name": "Montr\u00e9al / Saint-Hubert Airport",
    "city": "Montreal",
    "country": "Canada",
    "iata": "YHU",
    "icao": "CYHU",
    "lat": 45.5175018311,
    "lng": -73.4169006348,
    "alt": 90,
    "tz_offset": "-5",
    "dst": "A",
    "tz": "America/Toronto",
    "type": "airport",
    "source": "OurAirports"
  },
  {
    "id": 72,
    "name": "Hay River / Merlyn Carter Airport",
    "city": "Hay River",
    "country": "Canada",
    "iata": "YHY",
    "icao": "CYHY",
    "lat": 60.8396987915,
    "lng": -115.782997131,
    "alt": 541,
    "tz_offset": "-7",
    "dst": "A",
    "tz": "America/Edmonton",
    "type": "airport",
    "source": "OurAirports"
  },
  {
    "id": 73,
    "name": "Halifax / Stanfield International Airport",
    "city": "Halifax",
    "country": "Canada",
    "iata": "YHZ",
    "icao": "CYHZ",
    "lat": 44.8807983398,
    "lng": -63.5085983276,
    "alt": 477,
    "tz_offset": "-4",
    "dst": "A",
    "tz": "America/Halifax",
    "type": "airport",
    "source": "OurAirports"
  },
  {
    "id": 74,
    "name": "Atikokan Municipal Airport",
    "city": "Atikokan",
    "country": "Canada",
    "iata": "YIB",
    "icao": "CYIB",
    "lat": 48.7738990784,
    "lng": -91.6386032104,
    "alt": 1408,
    "tz_offset": "-5",
    "dst": "A",
    "tz": "America/Coral_Harbour",
    "type": "airport",
    "source": "OurAirports"
  },
  {
    "id": 75,
    "name": "Pond Inlet Airport",
    "city": "Pond Inlet",
    "country": "Canada",
    "iata": "YIO",
    "icao": "CYIO",
    "lat": 72.6832962036,
    "lng": -77.9666976929,
    "alt": 181,
    "tz_offset": "-5",
    "dst": "A",
    "tz": "America/Toronto",
    "type": "airport",
    "source": "OurAirports"
  },
  {
    "id": 76,
    "name": "St Jean Airport",
    "city": "St. Jean",
    "country": "Canada",
    "iata": "YJN",
    "icao": "CYJN",
    "lat": 45.29439926147461,
    "lng": -73.28109741210938,
    "alt": 136,
    "tz_offset": "-5",
    "dst": "A",
    "tz": "America/Toronto",
    "type": "airport",
    "source": "OurAirports"
  },
  {
    "id": 77,
    "name": "Stephenville Airport",
    "city": "Stephenville",
    "country": "Canada",
    "iata": "YJT",
    "icao": "CYJT",
    "lat": 48.5442008972168,
    "lng": -58.54999923706055,
    "alt": 84,
    "tz_offset": "-3.5",
    "dst": "A",
    "tz": "America/St_Johns",
    "type": "airport",
    "source": "OurAirports"
  },
  {
    "id": 78,
    "name": "Kamloops Airport",
    "city": "Kamloops",
    "country": "Canada",
    "iata": "YKA",
    "icao": "CYKA",
    "lat": 50.7022018433,
    "lng": -120.444000244,
    "alt": 1133,
    "tz_offset": "-8",
    "dst": "A",
    "tz": "America/Vancouver",
    "type": "airport",
    "source": "OurAirports"
  },
  {
    "id": 79,
    "name": "Waterloo Airport",
    "city": "Waterloo",
    "country": "Canada",
    "iata": "YKF",
    "icao": "CYKF",
    "lat": 43.4608001709,
    "lng": -80.3786010742,
    "alt": 1055,
    "tz_offset": "-5",
    "dst": "A",
    "tz": "America/Toronto",
    "type": "airport",
    "source": "OurAirports"
  },
  {
    "id": 80,
    "name": "Schefferville Airport",
    "city": "Schefferville",
    "country": "Canada",
    "iata": "YKL",
    "icao": "CYKL",
    "lat": 54.805301666259766,
    "lng": -66.8052978515625,
    "alt": 1709,
    "tz_offset": "-5",
    "dst": "A",
    "tz": "America/Toronto",
    "type": "airport",
    "source": "OurAirports"
  },
  {
    "id": 81,
    "name": "Kindersley Airport",
    "city": "Kindersley",
    "country": "Canada",
    "iata": "YKY",
    "icao": "CYKY",
    "lat": 51.5175018311,
    "lng": -109.180999756,
    "alt": 2277,
    "tz_offset": "-6",
    "dst": "N",
    "tz": "America/Regina",
    "type": "airport",
    "source": "OurAirports"
  },
  {
    "id": 82,
    "name": "Buttonville Municipal Airport",
    "city": "Toronto",
    "country": "Canada",
    "iata": "YKZ",
    "icao": "CYKZ",
    "lat": 43.86220169067383,
    "lng": -79.37000274658203,
    "alt": 650,
    "tz_offset": "-5",
    "dst": "A",
    "tz": "America/Toronto",
    "type": "airport",
    "source": "OurAirports"
  },
  {
    "id": 83,
    "name": "Chapleau Airport",
    "city": "Chapleau",
    "country": "Canada",
    "iata": "YLD",
    "icao": "CYLD",
    "lat": 47.81999969482422,
    "lng": -83.3467025756836,
    "alt": 1470,
    "tz_offset": "-5",
    "dst": "A",
    "tz": "America/Toronto",
    "type": "airport",
    "source": "OurAirports"
  },
  {
    "id": 84,
    "name": "Meadow Lake Airport",
    "city": "Meadow Lake",
    "country": "Canada",
    "iata": "YLJ",
    "icao": "CYLJ",
    "lat": 54.125301361083984,
    "lng": -108.52300262451172,
    "alt": 1576,
    "tz_offset": "-6",
    "dst": "N",
    "tz": "America/Regina",
    "type": "airport",
    "source": "OurAirports"
  },
  {
    "id": 85,
    "name": "Lloydminster Airport",
    "city": "Lloydminster",
    "country": "Canada",
    "iata": "YLL",
    "icao": "CYLL",
    "lat": 53.309200286865234,
    "lng": -110.072998046875,
    "alt": 2193,
    "tz_offset": "-7",
    "dst": "A",
    "tz": "America/Edmonton",
    "type": "airport",
    "source": "OurAirports"
  },
  {
    "id": 86,
    "name": "Alert Airport",
    "city": "Alert",
    "country": "Canada",
    "iata": "YLT",
    "icao": "CYLT",
    "lat": 82.51779937740001,
    "lng": -62.2806015015,
    "alt": 100,
    "tz_offset": "-5",
    "dst": "A",
    "tz": "America/Toronto",
    "type": "airport",
    "source": "OurAirports"
  },
  {
    "id": 87,
    "name": "Kelowna International Airport",
    "city": "Kelowna",
    "country": "Canada",
    "iata": "YLW",
    "icao": "CYLW",
    "lat": 49.9561004639,
    "lng": -119.377998352,
    "alt": 1421,
    "tz_offset": "-8",
    "dst": "A",
    "tz": "America/Vancouver",
    "type": "airport",
    "source": "OurAirports"
  },
  {
    "id": 88,
    "name": "Mayo Airport",
    "city": "Mayo",
    "country": "Canada",
    "iata": "YMA",
    "icao": "CYMA",
    "lat": 63.61640167236328,
    "lng": -135.8679962158203,
    "alt": 1653,
    "tz_offset": "-8",
    "dst": "A",
    "tz": "America/Vancouver",
    "type": "airport",
    "source": "OurAirports"
  },
  {
    "id": 89,
    "name": "Moose Jaw Air Vice Marshal C. M. McEwen Airport",
    "city": "Moose Jaw",
    "country": "Canada",
    "iata": "YMJ",
    "icao": "CYMJ",
    "lat": 50.330299377441406,
    "lng": -105.55899810791016,
    "alt": 1892,
    "tz_offset": "-6",
    "dst": "N",
    "tz": "America/Regina",
    "type": "airport",
    "source": "OurAirports"
  },
  {
    "id": 90,
    "name": "Fort McMurray Airport",
    "city": "Fort Mcmurray",
    "country": "Canada",
    "iata": "YMM",
    "icao": "CYMM",
    "lat": 56.653301239,
    "lng": -111.222000122,
    "alt": 1211,
    "tz_offset": "-7",
    "dst": "A",
    "tz": "America/Edmonton",
    "type": "airport",
    "source": "OurAirports"
  },
  {
    "id": 91,
    "name": "Moosonee Airport",
    "city": "Moosonee",
    "country": "Canada",
    "iata": "YMO",
    "icao": "CYMO",
    "lat": 51.29109954833984,
    "lng": -80.60780334472656,
    "alt": 30,
    "tz_offset": "-5",
    "dst": "A",
    "tz": "America/Toronto",
    "type": "airport",
    "source": "OurAirports"
  },
  {
    "id": 92,
    "name": "Maniwaki Airport",
    "city": "Maniwaki",
    "country": "Canada",
    "iata": "YMW",
    "icao": "CYMW",
    "lat": 46.2728004456,
    "lng": -75.9906005859,
    "alt": 656,
    "tz_offset": "-5",
    "dst": "A",
    "tz": "America/Toronto",
    "type": "airport",
    "source": "OurAirports"
  },
  {
    "id": 93,
    "name": "Montreal International (Mirabel) Airport",
    "city": "Montreal",
    "country": "Canada",
    "iata": "YMX",
    "icao": "CYMX",
    "lat": 45.679501,
    "lng": -74.038696,
    "alt": 270,
    "tz_offset": "-5",
    "dst": "A",
    "tz": "America/Toronto",
    "type": "airport",
    "source": "OurAirports"
  },
  {
    "id": 94,
    "name": "Natashquan Airport",
    "city": "Natashquan",
    "country": "Canada",
    "iata": "YNA",
    "icao": "CYNA",
    "lat": 50.18999862670898,
    "lng": -61.78919982910156,
    "alt": 39,
    "tz_offset": "-5",
    "dst": "A",
    "tz": "America/Toronto",
    "type": "airport",
    "source": "OurAirports"
  },
  {
    "id": 95,
    "name": "Ottawa / Gatineau Airport",
    "city": "Gatineau",
    "country": "Canada",
    "iata": "YND",
    "icao": "CYND",
    "lat": 45.5217018127,
    "lng": -75.5635986328,
    "alt": 211,
    "tz_offset": "-5",
    "dst": "A",
    "tz": "America/Toronto",
    "type": "airport",
    "source": "OurAirports"
  },
  {
    "id": 96,
    "name": "Matagami Airport",
    "city": "Matagami",
    "country": "Canada",
    "iata": "YNM",
    "icao": "CYNM",
    "lat": 49.76169967651367,
    "lng": -77.80280303955078,
    "alt": 918,
    "tz_offset": "-5",
    "dst": "A",
    "tz": "America/Toronto",
    "type": "airport",
    "source": "OurAirports"
  },
  {
    "id": 97,
    "name": "Old Crow Airport",
    "city": "Old Crow",
    "country": "Canada",
    "iata": "YOC",
    "icao": "CYOC",
    "lat": 67.57060241699219,
    "lng": -139.83900451660156,
    "alt": 824,
    "tz_offset": "-8",
    "dst": "A",
    "tz": "America/Vancouver",
    "type": "airport",
    "source": "OurAirports"
  },
  {
    "id": 98,
    "name": "CFB Cold Lake",
    "city": "Cold Lake",
    "country": "Canada",
    "iata": "YOD",
    "icao": "CYOD",
    "lat": 54.40499877929688,
    "lng": -110.27899932861328,
    "alt": 1775,
    "tz_offset": "-7",
    "dst": "A",
    "tz": "America/Edmonton",
    "type": "airport",
    "source": "OurAirports"
  },
  {
    "id": 99,
    "name": "High Level Airport",
    "city": "High Level",
    "country": "Canada",
    "iata": "YOJ",
    "icao": "CYOJ",
    "lat": 58.62139892578125,
    "lng": -117.16500091552734,
    "alt": 1110,
    "tz_offset": "-7",
    "dst": "A",
    "tz": "America/Edmonton",
    "type": "airport",
    "source": "OurAirports"
  },
  {
    "id": 100,
    "name": "Ottawa Macdonald-Cartier International Airport",
    "city": "Ottawa",
    "country": "Canada",
    "iata": "YOW",
    "icao": "CYOW",
    "lat": 45.3224983215332,
    "lng": -75.66919708251953,
    "alt": 374,
    "tz_offset": "-5",
    "dst": "A",
    "tz": "America/Toronto",
    "type": "airport",
    "source": "OurAirports"
  },
  {
    "id": 101,
    "name": "Prince Albert Glass Field",
    "city": "Prince Albert",
    "country": "Canada",
    "iata": "YPA",
    "icao": "CYPA",
    "lat": 53.2141990662,
    "lng": -105.672996521,
    "alt": 1405,
    "tz_offset": "-6",
    "dst": "N",
    "tz": "America/Regina",
    "type": "airport",
    "source": "OurAirports"
  },
  {
    "id": 102,
    "name": "Peace River Airport",
    "city": "Peace River",
    "country": "Canada",
    "iata": "YPE",
    "icao": "CYPE",
    "lat": 56.226898,
    "lng": -117.446999,
    "alt": 1873,
    "tz_offset": "-7",
    "dst": "A",
    "tz": "America/Edmonton",
    "type": "airport",
    "source": "OurAirports"
  },
  {
    "id": 103,
    "name": "Southport Airport",
    "city": "Portage-la-prairie",
    "country": "Canada",
    "iata": "YPG",
    "icao": "CYPG",
    "lat": 49.903099,
    "lng": -98.273817,
    "alt": 885,
    "tz_offset": "-6",
    "dst": "A",
    "tz": "America/Winnipeg",
    "type": "airport",
    "source": "OurAirports"
  },
  {
    "id": 105,
    "name": "Pickle Lake Airport",
    "city": "Pickle Lake",
    "country": "Canada",
    "iata": "YPL",
    "icao": "CYPL",
    "lat": 51.4463996887207,
    "lng": -90.21420288085938,
    "alt": 1267,
    "tz_offset": "-5",
    "dst": "A",
    "tz": "America/Coral_Harbour",
    "type": "airport",
    "source": "OurAirports"
  },
  {
    "id": 106,
    "name": "Port Menier Airport",
    "city": "Port Menier",
    "country": "Canada",
    "iata": "YPN",
    "icao": "CYPN",
    "lat": 49.83639907836914,
    "lng": -64.2885971069336,
    "alt": 167,
    "tz_offset": "-5",
    "dst": "A",
    "tz": "America/Toronto",
    "type": "airport",
    "source": "OurAirports"
  },
  {
    "id": 107,
    "name": "Peterborough Airport",
    "city": "Peterborough",
    "country": "Canada",
    "iata": "YPQ",
    "icao": "CYPQ",
    "lat": 44.22999954223633,
    "lng": -78.36329650878906,
    "alt": 628,
    "tz_offset": "-5",
    "dst": "A",
    "tz": "America/Toronto",
    "type": "airport",
    "source": "OurAirports"
  },
  {
    "id": 108,
    "name": "Prince Rupert Airport",
    "city": "Prince Pupert",
    "country": "Canada",
    "iata": "YPR",
    "icao": "CYPR",
    "lat": 54.2860984802,
    "lng": -130.445007324,
    "alt": 116,
    "tz_offset": "-8",
    "dst": "A",
    "tz": "America/Vancouver",
    "type": "airport",
    "source": "OurAirports"
  },
  {
    "id": 109,
    "name": "Fort Chipewyan Airport",
    "city": "Fort Chipewyan",
    "country": "Canada",
    "iata": "YPY",
    "icao": "CYPY",
    "lat": 58.7672004699707,
    "lng": -111.11699676513672,
    "alt": 761,
    "tz_offset": "-7",
    "dst": "A",
    "tz": "America/Edmonton",
    "type": "airport",
    "source": "OurAirports"
  },
  {
    "id": 110,
    "name": "Muskoka Airport",
    "city": "Muskoka",
    "country": "Canada",
    "iata": "YQA",
    "icao": "CYQA",
    "lat": 44.974700927734375,
    "lng": -79.30329895019531,
    "alt": 925,
    "tz_offset": "-5",
    "dst": "A",
    "tz": "America/Toronto",
    "type": "airport",
    "source": "OurAirports"
  },
  {
    "id": 111,
    "name": "Quebec Jean Lesage International Airport",
    "city": "Quebec",
    "country": "Canada",
    "iata": "YQB",
    "icao": "CYQB",
    "lat": 46.7911,
    "lng": -71.393303,
    "alt": 244,
    "tz_offset": "-5",
    "dst": "A",
    "tz": "America/Toronto",
    "type": "airport",
    "source": "OurAirports"
  },
  {
    "id": 112,
    "name": "Red Deer Regional Airport",
    "city": "Red Deer Industrial",
    "country": "Canada",
    "iata": "YQF",
    "icao": "CYQF",
    "lat": 52.18220138549805,
    "lng": -113.8939971923828,
    "alt": 2968,
    "tz_offset": "-7",
    "dst": "A",
    "tz": "America/Edmonton",
    "type": "airport",
    "source": "OurAirports"
  },
  {
    "id": 113,
    "name": "Windsor Airport",
    "city": "Windsor",
    "country": "Canada",
    "iata": "YQG",
    "icao": "CYQG",
    "lat": 42.27560043334961,
    "lng": -82.95559692382812,
    "alt": 622,
    "tz_offset": "-5",
    "dst": "A",
    "tz": "America/Toronto",
    "type": "airport",
    "source": "OurAirports"
  },
  {
    "id": 114,
    "name": "Watson Lake Airport",
    "city": "Watson Lake",
    "country": "Canada",
    "iata": "YQH",
    "icao": "CYQH",
    "lat": 60.11640167236328,
    "lng": -128.82200622558594,
    "alt": 2255,
    "tz_offset": "-8",
    "dst": "A",
    "tz": "America/Vancouver",
    "type": "airport",
    "source": "OurAirports"
  },
  {
    "id": 115,
    "name": "Kenora Airport",
    "city": "Kenora",
    "country": "Canada",
    "iata": "YQK",
    "icao": "CYQK",
    "lat": 49.78829956054688,
    "lng": -94.36309814453124,
    "alt": 1332,
    "tz_offset": "-6",
    "dst": "A",
    "tz": "America/Winnipeg",
    "type": "airport",
    "source": "OurAirports"
  },
  {
    "id": 116,
    "name": "Lethbridge County Airport",
    "city": "Lethbridge",
    "country": "Canada",
    "iata": "YQL",
    "icao": "CYQL",
    "lat": 49.6302986145,
    "lng": -112.800003052,
    "alt": 3048,
    "tz_offset": "-7",
    "dst": "A",
    "tz": "America/Edmonton",
    "type": "airport",
    "source": "OurAirports"
  },
  {
    "id": 117,
    "name": "Greater Moncton International Airport",
    "city": "Moncton",
    "country": "Canada",
    "iata": "YQM",
    "icao": "CYQM",
    "lat": 46.11220169067383,
    "lng": -64.67859649658203,
    "alt": 232,
    "tz_offset": "-4",
    "dst": "A",
    "tz": "America/Halifax",
    "type": "airport",
    "source": "OurAirports"
  },
  {
    "id": 119,
    "name": "Comox Airport",
    "city": "Comox",
    "country": "Canada",
    "iata": "YQQ",
    "icao": "CYQQ",
    "lat": 49.71080017089844,
    "lng": -124.88700103759766,
    "alt": 84,
    "tz_offset": "-8",
    "dst": "A",
    "tz": "America/Vancouver",
    "type": "airport",
    "source": "OurAirports"
  },
  {
    "id": 120,
    "name": "Regina International Airport",
    "city": "Regina",
    "country": "Canada",
    "iata": "YQR",
    "icao": "CYQR",
    "lat": 50.43190002441406,
    "lng": -104.66600036621094,
    "alt": 1894,
    "tz_offset": "-6",
    "dst": "N",
    "tz": "America/Regina",
    "type": "airport",
    "source": "OurAirports"
  },
  {
    "id": 121,
    "name": "Thunder Bay Airport",
    "city": "Thunder Bay",
    "country": "Canada",
    "iata": "YQT",
    "icao": "CYQT",
    "lat": 48.37189865112305,
    "lng": -89.32389831542969,
    "alt": 653,
    "tz_offset": "-5",
    "dst": "A",
    "tz": "America/Toronto",
    "type": "airport",
    "source": "OurAirports"
  },
  {
    "id": 122,
    "name": "Grande Prairie Airport",
    "city": "Grande Prairie",
    "country": "Canada",
    "iata": "YQU",
    "icao": "CYQU",
    "lat": 55.1796989441,
    "lng": -118.885002136,
    "alt": 2195,
    "tz_offset": "-7",
    "dst": "A",
    "tz": "America/Edmonton",
    "type": "airport",
    "source": "OurAirports"
  },
  {
    "id": 123,
    "name": "Yorkton Municipal Airport",
    "city": "Yorkton",
    "country": "Canada",
    "iata": "YQV",
    "icao": "CYQV",
    "lat": 51.26470184326172,
    "lng": -102.46199798583984,
    "alt": 1635,
    "tz_offset": "-6",
    "dst": "N",
    "tz": "America/Regina",
    "type": "airport",
    "source": "OurAirports"
  },
  {
    "id": 124,
    "name": "North Battleford Airport",
    "city": "North Battleford",
    "country": "Canada",
    "iata": "YQW",
    "icao": "CYQW",
    "lat": 52.76919937133789,
    "lng": -108.24400329589844,
    "alt": 1799,
    "tz_offset": "-6",
    "dst": "N",
    "tz": "America/Regina",
    "type": "airport",
    "source": "OurAirports"
  },
  {
    "id": 125,
    "name": "Gander International Airport",
    "city": "Gander",
    "country": "Canada",
    "iata": "YQX",
    "icao": "CYQX",
    "lat": 48.9369010925293,
    "lng": -54.56809997558594,
    "alt": 496,
    "tz_offset": "-3.5",
    "dst": "A",
    "tz": "America/St_Johns",
    "type": "airport",
    "source": "OurAirports"
  },
  {
    "id": 126,
    "name": "Sydney / J.A. Douglas McCurdy Airport",
    "city": "Sydney",
    "country": "Canada",
    "iata": "YQY",
    "icao": "CYQY",
    "lat": 46.1614,
    "lng": -60.047798,
    "alt": 203,
    "tz_offset": "-4",
    "dst": "A",
    "tz": "America/Halifax",
    "type": "airport",
    "source": "OurAirports"
  },
  {
    "id": 127,
    "name": "Quesnel Airport",
    "city": "Quesnel",
    "country": "Canada",
    "iata": "YQZ",
    "icao": "CYQZ",
    "lat": 53.026100158691406,
    "lng": -122.51000213623048,
    "alt": 1789,
    "tz_offset": "-8",
    "dst": "A",
    "tz": "America/Vancouver",
    "type": "airport",
    "source": "OurAirports"
  },
  {
    "id": 128,
    "name": "Resolute Bay Airport",
    "city": "Resolute",
    "country": "Canada",
    "iata": "YRB",
    "icao": "CYRB",
    "lat": 74.7169036865,
    "lng": -94.9693984985,
    "alt": 215,
    "tz_offset": "-6",
    "dst": "A",
    "tz": "America/Winnipeg",
    "type": "airport",
    "source": "OurAirports"
  },
  {
    "id": 129,
    "name": "Rivi\u00e8re-du-Loup Airport",
    "city": "Riviere Du Loup",
    "country": "Canada",
    "iata": "YRI",
    "icao": "CYRI",
    "lat": 47.76440048217773,
    "lng": -69.58470153808594,
    "alt": 427,
    "tz_offset": "-5",
    "dst": "A",
    "tz": "America/Toronto",
    "type": "airport",
    "source": "OurAirports"
  },
  {
    "id": 130,
    "name": "Roberval Airport",
    "city": "Roberval",
    "country": "Canada",
    "iata": "YRJ",
    "icao": "CYRJ",
    "lat": 48.52000045776367,
    "lng": -72.2656021118164,
    "alt": 586,
    "tz_offset": "-5",
    "dst": "A",
    "tz": "America/Toronto",
    "type": "airport",
    "source": "OurAirports"
  },
  {
    "id": 131,
    "name": "Rocky Mountain House Airport",
    "city": "Rocky Mountain House",
    "country": "Canada",
    "iata": "YRM",
    "icao": "CYRM",
    "lat": 52.4296989441,
    "lng": -114.903999329,
    "alt": 3244,
    "tz_offset": "-7",
    "dst": "A",
    "tz": "America/Edmonton",
    "type": "airport",
    "source": "OurAirports"
  },
  {
    "id": 132,
    "name": "Rankin Inlet Airport",
    "city": "Rankin Inlet",
    "country": "Canada",
    "iata": "YRT",
    "icao": "CYRT",
    "lat": 62.8114013672,
    "lng": -92.1157989502,
    "alt": 94,
    "tz_offset": "-6",
    "dst": "A",
    "tz": "America/Winnipeg",
    "type": "airport",
    "source": "OurAirports"
  },
  {
    "id": 133,
    "name": "Sudbury Airport",
    "city": "Sudbury",
    "country": "Canada",
    "iata": "YSB",
    "icao": "CYSB",
    "lat": 46.625,
    "lng": -80.79889678955078,
    "alt": 1141,
    "tz_offset": "-5",
    "dst": "A",
    "tz": "America/Toronto",
    "type": "airport",
    "source": "OurAirports"
  },
  {
    "id": 134,
    "name": "Sherbrooke Airport",
    "city": "Sherbrooke",
    "country": "Canada",
    "iata": "YSC",
    "icao": "CYSC",
    "lat": 45.4385986328125,
    "lng": -71.69139862060547,
    "alt": 792,
    "tz_offset": "-5",
    "dst": "A",
    "tz": "America/Toronto",
    "type": "airport",
    "source": "OurAirports"
  },
  {
    "id": 135,
    "name": "Saint John Airport",
    "city": "St. John",
    "country": "Canada",
    "iata": "YSJ",
    "icao": "CYSJ",
    "lat": 45.31610107421875,
    "lng": -65.89029693603516,
    "alt": 357,
    "tz_offset": "-4",
    "dst": "A",
    "tz": "America/Halifax",
    "type": "airport",
    "source": "OurAirports"
  },
  {
    "id": 136,
    "name": "Fort Smith Airport",
    "city": "Fort Smith",
    "country": "Canada",
    "iata": "YSM",
    "icao": "CYSM",
    "lat": 60.020301818847656,
    "lng": -111.96199798583984,
    "alt": 671,
    "tz_offset": "-7",
    "dst": "A",
    "tz": "America/Edmonton",
    "type": "airport",
    "source": "OurAirports"
  },
  {
    "id": 137,
    "name": "Nanisivik Airport",
    "city": "Nanisivik",
    "country": "Canada",
    "iata": "YSR",
    "icao": "CYSR",
    "lat": 72.982201,
    "lng": -84.613602,
    "alt": 2106,
    "tz_offset": "-5",
    "dst": "A",
    "tz": "America/Toronto",
    "type": "airport",
    "source": "OurAirports"
  },
  {
    "id": 138,
    "name": "Summerside Airport",
    "city": "Summerside",
    "country": "Canada",
    "iata": "YSU",
    "icao": "CYSU",
    "lat": 46.44060134887695,
    "lng": -63.83359909057617,
    "alt": 56,
    "tz_offset": "-4",
    "dst": "A",
    "tz": "America/Halifax",
    "type": "airport",
    "source": "OurAirports"
  },
  {
    "id": 139,
    "name": "Sachs Harbour (David Nasogaluak Jr. Saaryuaq) Airport",
    "city": "Sachs Harbour",
    "country": "Canada",
    "iata": "YSY",
    "icao": "CYSY",
    "lat": 71.9938964844,
    "lng": -125.242996216,
    "alt": 282,
    "tz_offset": "-7",
    "dst": "A",
    "tz": "America/Edmonton",
    "type": "airport",
    "source": "OurAirports"
  },
  {
    "id": 140,
    "name": "Cape Dorset Airport",
    "city": "Cape Dorset",
    "country": "Canada",
    "iata": "YTE",
    "icao": "CYTE",
    "lat": 64.2300033569,
    "lng": -76.5267028809,
    "alt": 164,
    "tz_offset": "-5",
    "dst": "A",
    "tz": "America/Toronto",
    "type": "airport",
    "source": "OurAirports"
  },
  {
    "id": 141,
    "name": "Thompson Airport",
    "city": "Thompson",
    "country": "Canada",
    "iata": "YTH",
    "icao": "CYTH",
    "lat": 55.80110168457031,
    "lng": -97.86419677734376,
    "alt": 729,
    "tz_offset": "-6",
    "dst": "A",
    "tz": "America/Winnipeg",
    "type": "airport",
    "source": "OurAirports"
  },
  {
    "id": 142,
    "name": "CFB Trenton",
    "city": "Trenton",
    "country": "Canada",
    "iata": "YTR",
    "icao": "CYTR",
    "lat": 44.118900299072266,
    "lng": -77.5280990600586,
    "alt": 283,
    "tz_offset": "-5",
    "dst": "A",
    "tz": "America/Toronto",
    "type": "airport",
    "source": "OurAirports"
  },
  {
    "id": 143,
    "name": "Timmins/Victor M. Power",
    "city": "Timmins",
    "country": "Canada",
    "iata": "YTS",
    "icao": "CYTS",
    "lat": 48.5696983337,
    "lng": -81.376701355,
    "alt": 967,
    "tz_offset": "-5",
    "dst": "A",
    "tz": "America/Toronto",
    "type": "airport",
    "source": "OurAirports"
  },
  {
    "id": 144,
    "name": "Billy Bishop Toronto City Centre Airport",
    "city": "Toronto",
    "country": "Canada",
    "iata": "YTZ",
    "icao": "CYTZ",
    "lat": 43.627499,
    "lng": -79.396202,
    "alt": 252,
    "tz_offset": "-5",
    "dst": "A",
    "tz": "America/Toronto",
    "type": "airport",
    "source": "OurAirports"
  },
  {
    "id": 145,
    "name": "Tuktoyaktuk Airport",
    "city": "Tuktoyaktuk",
    "country": "Canada",
    "iata": "YUB",
    "icao": "CYUB",
    "lat": 69.43329620361328,
    "lng": -133.0260009765625,
    "alt": 15,
    "tz_offset": "-7",
    "dst": "A",
    "tz": "America/Edmonton",
    "type": "airport",
    "source": "OurAirports"
  },
  {
    "id": 146,
    "name": "Montreal / Pierre Elliott Trudeau International Airport",
    "city": "Montreal",
    "country": "Canada",
    "iata": "YUL",
    "icao": "CYUL",
    "lat": 45.4706001282,
    "lng": -73.7407989502,
    "alt": 118,
    "tz_offset": "-5",
    "dst": "A",
    "tz": "America/Toronto",
    "type": "airport",
    "source": "OurAirports"
  },
  {
    "id": 147,
    "name": "Repulse Bay Airport",
    "city": "Repulse Bay",
    "country": "Canada",
    "iata": "YUT",
    "icao": "CYUT",
    "lat": 66.5214004517,
    "lng": -86.22470092770001,
    "alt": 80,
    "tz_offset": "-6",
    "dst": "A",
    "tz": "America/Winnipeg",
    "type": "airport",
    "source": "OurAirports"
  },
  {
    "id": 148,
    "name": "Hall Beach Airport",
    "city": "Hall Beach",
    "country": "Canada",
    "iata": "YUX",
    "icao": "CYUX",
    "lat": 68.77610015869999,
    "lng": -81.2425,
    "alt": 30,
    "tz_offset": "-5",
    "dst": "A",
    "tz": "America/Toronto",
    "type": "airport",
    "source": "OurAirports"
  },
  {
    "id": 149,
    "name": "Rouyn Noranda Airport",
    "city": "Rouyn",
    "country": "Canada",
    "iata": "YUY",
    "icao": "CYUY",
    "lat": 48.20610046386719,
    "lng": -78.83560180664062,
    "alt": 988,
    "tz_offset": "-5",
    "dst": "A",
    "tz": "America/Toronto",
    "type": "airport",
    "source": "OurAirports"
  },
  {
    "id": 150,
    "name": "La Ronge Airport",
    "city": "La Ronge",
    "country": "Canada",
    "iata": "YVC",
    "icao": "CYVC",
    "lat": 55.1514015198,
    "lng": -105.262001038,
    "alt": 1242,
    "tz_offset": "-6",
    "dst": "N",
    "tz": "America/Regina",
    "type": "airport",
    "source": "OurAirports"
  },
  {
    "id": 151,
    "name": "Vermilion Airport",
    "city": "Vermillion",
    "country": "Canada",
    "iata": "YVG",
    "icao": "CYVG",
    "lat": 53.3558006287,
    "lng": -110.823997498,
    "alt": 2025,
    "tz_offset": "-7",
    "dst": "A",
    "tz": "America/Edmonton",
    "type": "airport",
    "source": "OurAirports"
  },
  {
    "id": 152,
    "name": "Qikiqtarjuaq Airport",
    "city": "Broughton Island",
    "country": "Canada",
    "iata": "YVM",
    "icao": "CYVM",
    "lat": 67.5457992554,
    "lng": -64.03140258789999,
    "alt": 21,
    "tz_offset": "-5",
    "dst": "A",
    "tz": "America/Toronto",
    "type": "airport",
    "source": "OurAirports"
  },
  {
    "id": 153,
    "name": "Val-d'Or Airport",
    "city": "Val D'or",
    "country": "Canada",
    "iata": "YVO",
    "icao": "CYVO",
    "lat": 48.0532989502,
    "lng": -77.7827987671,
    "alt": 1107,
    "tz_offset": "-5",
    "dst": "A",
    "tz": "America/Toronto",
    "type": "airport",
    "source": "OurAirports"
  },
  {
    "id": 154,
    "name": "Kuujjuaq Airport",
    "city": "Quujjuaq",
    "country": "Canada",
    "iata": "YVP",
    "icao": "CYVP",
    "lat": 58.096099853515625,
    "lng": -68.4269027709961,
    "alt": 129,
    "tz_offset": "-5",
    "dst": "A",
    "tz": "America/Toronto",
    "type": "airport",
    "source": "OurAirports"
  },
  {
    "id": 155,
    "name": "Norman Wells Airport",
    "city": "Norman Wells",
    "country": "Canada",
    "iata": "YVQ",
    "icao": "CYVQ",
    "lat": 65.28160095214844,
    "lng": -126.7979965209961,
    "alt": 238,
    "tz_offset": "-7",
    "dst": "A",
    "tz": "America/Edmonton",
    "type": "airport",
    "source": "OurAirports"
  },
  {
    "id": 156,
    "name": "Vancouver International Airport",
    "city": "Vancouver",
    "country": "Canada",
    "iata": "YVR",
    "icao": "CYVR",
    "lat": 49.193901062,
    "lng": -123.183998108,
    "alt": 14,
    "tz_offset": "-8",
    "dst": "A",
    "tz": "America/Vancouver",
    "type": "airport",
    "source": "OurAirports"
  },
  {
    "id": 157,
    "name": "Buffalo Narrows Airport",
    "city": "Buffalo Narrows",
    "country": "Canada",
    "iata": "YVT",
    "icao": "CYVT",
    "lat": 55.8418998718,
    "lng": -108.417999268,
    "alt": 1423,
    "tz_offset": "-6",
    "dst": "N",
    "tz": "America/Regina",
    "type": "airport",
    "source": "OurAirports"
  },
  {
    "id": 158,
    "name": "Wiarton Airport",
    "city": "Wiarton",
    "country": "Canada",
    "iata": "YVV",
    "icao": "CYVV",
    "lat": 44.7458,
    "lng": -81.107201,
    "alt": 729,
    "tz_offset": "-5",
    "dst": "A",
    "tz": "America/Toronto",
    "type": "airport",
    "source": "OurAirports"
  },
  {
    "id": 159,
    "name": "Petawawa Airport",
    "city": "Petawawa",
    "country": "Canada",
    "iata": "YWA",
    "icao": "CYWA",
    "lat": 45.95220184326172,
    "lng": -77.31919860839844,
    "alt": 427,
    "tz_offset": "-5",
    "dst": "A",
    "tz": "America/Toronto",
    "type": "airport",
    "source": "OurAirports"
  },
  {
    "id": 160,
    "name": "Winnipeg / James Armstrong Richardson International Airport",
    "city": "Winnipeg",
    "country": "Canada",
    "iata": "YWG",
    "icao": "CYWG",
    "lat": 49.9099998474,
    "lng": -97.2398986816,
    "alt": 783,
    "tz_offset": "-6",
    "dst": "A",
    "tz": "America/Winnipeg",
    "type": "airport",
    "source": "OurAirports"
  },
  {
    "id": 161,
    "name": "Wabush Airport",
    "city": "Wabush",
    "country": "Canada",
    "iata": "YWK",
    "icao": "CYWK",
    "lat": 52.92190170288086,
    "lng": -66.8644027709961,
    "alt": 1808,
    "tz_offset": "-4",
    "dst": "A",
    "tz": "America/Halifax",
    "type": "airport",
    "source": "OurAirports"
  },
  {
    "id": 162,
    "name": "Williams Lake Airport",
    "city": "Williams Lake",
    "country": "Canada",
    "iata": "YWL",
    "icao": "CYWL",
    "lat": 52.1831016541,
    "lng": -122.054000854,
    "alt": 3085,
    "tz_offset": "-8",
    "dst": "A",
    "tz": "America/Vancouver",
    "type": "airport",
    "source": "OurAirports"
  },
  {
    "id": 163,
    "name": "Wrigley Airport",
    "city": "Wrigley",
    "country": "Canada",
    "iata": "YWY",
    "icao": "CYWY",
    "lat": 63.20940017700195,
    "lng": -123.43699645996094,
    "alt": 489,
    "tz_offset": "-7",
    "dst": "A",
    "tz": "America/Edmonton",
    "type": "airport",
    "source": "OurAirports"
  },
  {
    "id": 164,
    "name": "Cranbrook/Canadian Rockies International Airport",
    "city": "Cranbrook",
    "country": "Canada",
    "iata": "YXC",
    "icao": "CYXC",
    "lat": 49.610801696777,
    "lng": -115.78199768066,
    "alt": 3082,
    "tz_offset": "-7",
    "dst": "A",
    "tz": "America/Edmonton",
    "type": "airport",
    "source": "OurAirports"
  },
  {
    "id": 165,
    "name": "Edmonton City Centre (Blatchford Field) Airport",
    "city": "Edmonton",
    "country": "Canada",
    "iata": "YXD",
    "icao": "CYXD",
    "lat": 53.5724983215,
    "lng": -113.521003723,
    "alt": 2202,
    "tz_offset": "-7",
    "dst": "A",
    "tz": "America/Edmonton",
    "type": "airport",
    "source": "OurAirports"
  },
  {
    "id": 166,
    "name": "Saskatoon John G. Diefenbaker International Airport",
    "city": "Saskatoon",
    "country": "Canada",
    "iata": "YXE",
    "icao": "CYXE",
    "lat": 52.17079925537109,
    "lng": -106.6999969482422,
    "alt": 1653,
    "tz_offset": "-6",
    "dst": "N",
    "tz": "America/Regina",
    "type": "airport",
    "source": "OurAirports"
  },
  {
    "id": 167,
    "name": "Medicine Hat Airport",
    "city": "Medicine Hat",
    "country": "Canada",
    "iata": "YXH",
    "icao": "CYXH",
    "lat": 50.01890182495117,
    "lng": -110.72100067138672,
    "alt": 2352,
    "tz_offset": "-7",
    "dst": "A",
    "tz": "America/Edmonton",
    "type": "airport",
    "source": "OurAirports"
  },
  {
    "id": 168,
    "name": "Fort St John Airport",
    "city": "Fort Saint John",
    "country": "Canada",
    "iata": "YXJ",
    "icao": "CYXJ",
    "lat": 56.23809814453125,
    "lng": -120.73999786376952,
    "alt": 2280,
    "tz_offset": "-7",
    "dst": "A",
    "tz": "America/Dawson_Creek",
    "type": "airport",
    "source": "OurAirports"
  },
  {
    "id": 169,
    "name": "Sioux Lookout Airport",
    "city": "Sioux Lookout",
    "country": "Canada",
    "iata": "YXL",
    "icao": "CYXL",
    "lat": 50.11389923095703,
    "lng": -91.9052963256836,
    "alt": 1258,
    "tz_offset": "-6",
    "dst": "A",
    "tz": "America/Winnipeg",
    "type": "airport",
    "source": "OurAirports"
  },
  {
    "id": 170,
    "name": "Pangnirtung Airport",
    "city": "Pangnirtung",
    "country": "Canada",
    "iata": "YXP",
    "icao": "CYXP",
    "lat": 66.1449966431,
    "lng": -65.71360015869999,
    "alt": 75,
    "tz_offset": "-5",
    "dst": "A",
    "tz": "America/Toronto",
    "type": "airport",
    "source": "OurAirports"
  },
  {
    "id": 171,
    "name": "Earlton (Timiskaming Regional) Airport",
    "city": "Earlton",
    "country": "Canada",
    "iata": "YXR",
    "icao": "CYXR",
    "lat": 47.6974006546,
    "lng": -79.8473453522,
    "alt": 800,
    "tz_offset": "-5",
    "dst": "A",
    "tz": "America/Toronto",
    "type": "airport",
    "source": "OurAirports"
  },
  {
    "id": 172,
    "name": "Prince George Airport",
    "city": "Prince George",
    "country": "Canada",
    "iata": "YXS",
    "icao": "CYXS",
    "lat": 53.8894004822,
    "lng": -122.679000854,
    "alt": 2267,
    "tz_offset": "-8",
    "dst": "A",
    "tz": "America/Vancouver",
    "type": "airport",
    "source": "OurAirports"
  },
  {
    "id": 173,
    "name": "Northwest Regional Airport Terrace-Kitimat",
    "city": "Terrace",
    "country": "Canada",
    "iata": "YXT",
    "icao": "CYXT",
    "lat": 54.468498,
    "lng": -128.576009,
    "alt": 713,
    "tz_offset": "-8",
    "dst": "A",
    "tz": "America/Vancouver",
    "type": "airport",
    "source": "OurAirports"
  },
  {
    "id": 174,
    "name": "London Airport",
    "city": "London",
    "country": "Canada",
    "iata": "YXU",
    "icao": "CYXU",
    "lat": 43.035599,
    "lng": -81.1539,
    "alt": 912,
    "tz_offset": "-5",
    "dst": "A",
    "tz": "America/Toronto",
    "type": "airport",
    "source": "OurAirports"
  },
  {
    "id": 175,
    "name": "Abbotsford Airport",
    "city": "Abbotsford",
    "country": "Canada",
    "iata": "YXX",
    "icao": "CYXX",
    "lat": 49.025299072265625,
    "lng": -122.36100006103516,
    "alt": 195,
    "tz_offset": "-8",
    "dst": "A",
    "tz": "America/Vancouver",
    "type": "airport",
    "source": "OurAirports"
  },
  {
    "id": 176,
    "name": "Whitehorse / Erik Nielsen International Airport",
    "city": "Whitehorse",
    "country": "Canada",
    "iata": "YXY",
    "icao": "CYXY",
    "lat": 60.7095985413,
    "lng": -135.067001343,
    "alt": 2317,
    "tz_offset": "-8",
    "dst": "A",
    "tz": "America/Vancouver",
    "type": "airport",
    "source": "OurAirports"
  },
  {
    "id": 177,
    "name": "North Bay Jack Garland Airport",
    "city": "North Bay",
    "country": "Canada",
    "iata": "YYB",
    "icao": "CYYB",
    "lat": 46.363602,
    "lng": -79.422798,
    "alt": 1215,
    "tz_offset": "-5",
    "dst": "A",
    "tz": "America/Toronto",
    "type": "airport",
    "source": "OurAirports"
  },
  {
    "id": 178,
    "name": "Calgary International Airport",
    "city": "Calgary",
    "country": "Canada",
    "iata": "YYC",
    "icao": "CYYC",
    "lat": 51.113899231,
    "lng": -114.019996643,
    "alt": 3557,
    "tz_offset": "-7",
    "dst": "A",
    "tz": "America/Edmonton",
    "type": "airport",
    "source": "OurAirports"
  },
  {
    "id": 179,
    "name": "Smithers Airport",
    "city": "Smithers",
    "country": "Canada",
    "iata": "YYD",
    "icao": "CYYD",
    "lat": 54.82469940185547,
    "lng": -127.18299865722656,
    "alt": 1712,
    "tz_offset": "-8",
    "dst": "A",
    "tz": "America/Vancouver",
    "type": "airport",
    "source": "OurAirports"
  },
  {
    "id": 180,
    "name": "Fort Nelson Airport",
    "city": "Fort Nelson",
    "country": "Canada",
    "iata": "YYE",
    "icao": "CYYE",
    "lat": 58.8363990784,
    "lng": -122.597000122,
    "alt": 1253,
    "tz_offset": "-8",
    "dst": "A",
    "tz": "America/Vancouver",
    "type": "airport",
    "source": "OurAirports"
  },
  {
    "id": 181,
    "name": "Penticton Airport",
    "city": "Penticton",
    "country": "Canada",
    "iata": "YYF",
    "icao": "CYYF",
    "lat": 49.46310043334961,
    "lng": -119.60199737548828,
    "alt": 1129,
    "tz_offset": "-8",
    "dst": "A",
    "tz": "America/Vancouver",
    "type": "airport",
    "source": "OurAirports"
  },
  {
    "id": 182,
    "name": "Charlottetown Airport",
    "city": "Charlottetown",
    "country": "Canada",
    "iata": "YYG",
    "icao": "CYYG",
    "lat": 46.290000915527344,
    "lng": -63.12110137939453,
    "alt": 160,
    "tz_offset": "-4",
    "dst": "A",
    "tz": "America/Halifax",
    "type": "airport",
    "source": "OurAirports"
  },
  {
    "id": 183,
    "name": "Taloyoak Airport",
    "city": "Spence Bay",
    "country": "Canada",
    "iata": "YYH",
    "icao": "CYYH",
    "lat": 69.5466995239,
    "lng": -93.5766983032,
    "alt": 92,
    "tz_offset": "-7",
    "dst": "A",
    "tz": "America/Edmonton",
    "type": "airport",
    "source": "OurAirports"
  },
  {
    "id": 184,
    "name": "Victoria International Airport",
    "city": "Victoria",
    "country": "Canada",
    "iata": "YYJ",
    "icao": "CYYJ",
    "lat": 48.646900177,
    "lng": -123.426002502,
    "alt": 63,
    "tz_offset": "-8",
    "dst": "A",
    "tz": "America/Vancouver",
    "type": "airport",
    "source": "OurAirports"
  },
  {
    "id": 185,
    "name": "Lynn Lake Airport",
    "city": "Lynn Lake",
    "country": "Canada",
    "iata": "YYL",
    "icao": "CYYL",
    "lat": 56.86389923095703,
    "lng": -101.07599639892578,
    "alt": 1170,
    "tz_offset": "-6",
    "dst": "A",
    "tz": "America/Winnipeg",
    "type": "airport",
    "source": "OurAirports"
  },
  {
    "id": 186,
    "name": "Swift Current Airport",
    "city": "Swift Current",
    "country": "Canada",
    "iata": "YYN",
    "icao": "CYYN",
    "lat": 50.2919006348,
    "lng": -107.691001892,
    "alt": 2680,
    "tz_offset": "-6",
    "dst": "N",
    "tz": "America/Regina",
    "type": "airport",
    "source": "OurAirports"
  },
  {
    "id": 187,
    "name": "Churchill Airport",
    "city": "Churchill",
    "country": "Canada",
    "iata": "YYQ",
    "icao": "CYYQ",
    "lat": 58.739200592041016,
    "lng": -94.06500244140624,
    "alt": 94,
    "tz_offset": "-6",
    "dst": "A",
    "tz": "America/Winnipeg",
    "type": "airport",
    "source": "OurAirports"
  },
  {
    "id": 188,
    "name": "Goose Bay Airport",
    "city": "Goose Bay",
    "country": "Canada",
    "iata": "YYR",
    "icao": "CYYR",
    "lat": 53.3191986084,
    "lng": -60.4258003235,
    "alt": 160,
    "tz_offset": "-4",
    "dst": "A",
    "tz": "America/Halifax",
    "type": "airport",
    "source": "OurAirports"
  },
  {
    "id": 189,
    "name": "St. John's International Airport",
    "city": "St. John's",
    "country": "Canada",
    "iata": "YYT",
    "icao": "CYYT",
    "lat": 47.618598938,
    "lng": -52.7518997192,
    "alt": 461,
    "tz_offset": "-3.5",
    "dst": "A",
    "tz": "America/St_Johns",
    "type": "airport",
    "source": "OurAirports"
  },
  {
    "id": 190,
    "name": "Kapuskasing Airport",
    "city": "Kapuskasing",
    "country": "Canada",
    "iata": "YYU",
    "icao": "CYYU",
    "lat": 49.41389846801758,
    "lng": -82.46749877929688,
    "alt": 743,
    "tz_offset": "-5",
    "dst": "A",
    "tz": "America/Toronto",
    "type": "airport",
    "source": "OurAirports"
  },
  {
    "id": 191,
    "name": "Armstrong Airport",
    "city": "Armstrong",
    "country": "Canada",
    "iata": "YYW",
    "icao": "CYYW",
    "lat": 50.29029846191406,
    "lng": -88.90969848632812,
    "alt": 1058,
    "tz_offset": "-5",
    "dst": "A",
    "tz": "America/Toronto",
    "type": "airport",
    "source": "OurAirports"
  },
  {
    "id": 192,
    "name": "Mont Joli Airport",
    "city": "Mont Joli",
    "country": "Canada",
    "iata": "YYY",
    "icao": "CYYY",
    "lat": 48.60860061645508,
    "lng": -68.20809936523438,
    "alt": 172,
    "tz_offset": "-5",
    "dst": "A",
    "tz": "America/Toronto",
    "type": "airport",
    "source": "OurAirports"
  },
  {
    "id": 193,
    "name": "Lester B. Pearson International Airport",
    "city": "Toronto",
    "country": "Canada",
    "iata": "YYZ",
    "icao": "CYYZ",
    "lat": 43.6772003174,
    "lng": -79.63059997559999,
    "alt": 569,
    "tz_offset": "-5",
    "dst": "A",
    "tz": "America/Toronto",
    "type": "airport",
    "source": "OurAirports"
  },
  {
    "id": 194,
    "name": "Downsview Airport",
    "city": "Toronto",
    "country": "Canada",
    "iata": "YZD",
    "icao": "CYZD",
    "lat": 43.74250030517578,
    "lng": -79.4655990600586,
    "alt": 652,
    "tz_offset": "-5",
    "dst": "A",
    "tz": "America/Toronto",
    "type": "airport",
    "source": "OurAirports"
  },
  {
    "id": 195,
    "name": "Gore Bay Manitoulin Airport",
    "city": "Gore Bay",
    "country": "Canada",
    "iata": "YZE",
    "icao": "CYZE",
    "lat": 45.88529968261719,
    "lng": -82.56780242919922,
    "alt": 635,
    "tz_offset": "-5",
    "dst": "A",
    "tz": "America/Toronto",
    "type": "airport",
    "source": "OurAirports"
  },
  {
    "id": 196,
    "name": "Yellowknife Airport",
    "city": "Yellowknife",
    "country": "Canada",
    "iata": "YZF",
    "icao": "CYZF",
    "lat": 62.462799072265625,
    "lng": -114.44000244140624,
    "alt": 675,
    "tz_offset": "-7",
    "dst": "A",
    "tz": "America/Edmonton",
    "type": "airport",
    "source": "OurAirports"
  },
  {
    "id": 197,
    "name": "Slave Lake Airport",
    "city": "Slave Lake",
    "country": "Canada",
    "iata": "YZH",
    "icao": "CYZH",
    "lat": 55.2930984497,
    "lng": -114.777000427,
    "alt": 1912,
    "tz_offset": "-7",
    "dst": "A",
    "tz": "America/Edmonton",
    "type": "airport",
    "source": "OurAirports"
  },
  {
    "id": 198,
    "name": "Sandspit Airport",
    "city": "Sandspit",
    "country": "Canada",
    "iata": "YZP",
    "icao": "CYZP",
    "lat": 53.25429916379999,
    "lng": -131.813995361,
    "alt": 21,
    "tz_offset": "-8",
    "dst": "A",
    "tz": "America/Vancouver",
    "type": "airport",
    "source": "OurAirports"
  },
  {
    "id": 199,
    "name": "Chris Hadfield Airport",
    "city": "Sarnia",
    "country": "Canada",
    "iata": "YZR",
    "icao": "CYZR",
    "lat": 42.9994010925293,
    "lng": -82.30889892578125,
    "alt": 594,
    "tz_offset": "-5",
    "dst": "A",
    "tz": "America/Toronto",
    "type": "airport",
    "source": "OurAirports"
  },
  {
    "id": 200,
    "name": "Port Hardy Airport",
    "city": "Port Hardy",
    "country": "Canada",
    "iata": "YZT",
    "icao": "CYZT",
    "lat": 50.68059921264648,
    "lng": -127.36699676513672,
    "alt": 71,
    "tz_offset": "-8",
    "dst": "A",
    "tz": "America/Vancouver",
    "type": "airport",
    "source": "OurAirports"
  },
  {
    "id": 201,
    "name": "Whitecourt Airport",
    "city": "Whitecourt",
    "country": "Canada",
    "iata": "YZU",
    "icao": "CYZU",
    "lat": 54.14390182495117,
    "lng": -115.78700256347656,
    "alt": 2567,
    "tz_offset": "-7",
    "dst": "A",
    "tz": "America/Edmonton",
    "type": "airport",
    "source": "OurAirports"
  },
  {
    "id": 202,
    "name": "Sept-\u00celes Airport",
    "city": "Sept-iles",
    "country": "Canada",
    "iata": "YZV",
    "icao": "CYZV",
    "lat": 50.22330093383789,
    "lng": -66.2656021118164,
    "alt": 180,
    "tz_offset": "-5",
    "dst": "A",
    "tz": "America/Toronto",
    "type": "airport",
    "source": "OurAirports"
  },
  {
    "id": 203,
    "name": "Teslin Airport",
    "city": "Teslin",
    "country": "Canada",
    "iata": "YZW",
    "icao": "CYZW",
    "lat": 60.17279815673828,
    "lng": -132.7429962158203,
    "alt": 2313,
    "tz_offset": "-8",
    "dst": "A",
    "tz": "America/Vancouver",
    "type": "airport",
    "source": "OurAirports"
  },
  {
    "id": 204,
    "name": "CFB Greenwood",
    "city": "Greenwood",
    "country": "Canada",
    "iata": "YZX",
    "icao": "CYZX",
    "lat": 44.98440170288086,
    "lng": -64.91690063476562,
    "alt": 92,
    "tz_offset": "-4",
    "dst": "A",
    "tz": "America/Halifax",
    "type": "airport",
    "source": "OurAirports"
  },
  {
    "id": 205,
    "name": "Faro Airport",
    "city": "Faro",
    "country": "Canada",
    "iata": "ZFA",
    "icao": "CZFA",
    "lat": 62.20750045776367,
    "lng": -133.37600708007812,
    "alt": 2351,
    "tz_offset": "-8",
    "dst": "A",
    "tz": "America/Vancouver",
    "type": "airport",
    "source": "OurAirports"
  },
  {
    "id": 206,
    "name": "Fort Mcpherson Airport",
    "city": "Fort Mcpherson",
    "country": "Canada",
    "iata": "ZFM",
    "icao": "CZFM",
    "lat": 67.40750122070312,
    "lng": -134.86099243164062,
    "alt": 116,
    "tz_offset": "-7",
    "dst": "A",
    "tz": "America/Edmonton",
    "type": "airport",
    "source": "OurAirports"
  },
  {
    "id": 207,
    "name": "Blida Airport",
    "city": "Blida",
    "country": "Algeria",
    "iata": "QLD",
    "icao": "DAAB",
    "lat": 36.50360107421875,
    "lng": 2.814169883728028,
    "alt": 535,
    "tz_offset": "1",
    "dst": "N",
    "tz": "Africa/Algiers",
    "type": "airport",
    "source": "OurAirports"
  },
  {
    "id": 208,
    "name": "Bou Saada Airport",
    "city": "Bou Saada",
    "country": "Algeria",
    "iata": "BUJ",
    "icao": "DAAD",
    "lat": 35.33250045776367,
    "lng": 4.206389904022217,
    "alt": 1506,
    "tz_offset": "1",
    "dst": "N",
    "tz": "Africa/Algiers",
    "type": "airport",
    "source": "OurAirports"
  },
  {
    "id": 209,
    "name": "Soummam Airport",
    "city": "Bejaja",
    "country": "Algeria",
    "iata": "BJA",
    "icao": "DAAE",
    "lat": 36.7120018005,
    "lng": 5.0699200630200005,
    "alt": 20,
    "tz_offset": "1",
    "dst": "N",
    "tz": "Africa/Algiers",
    "type": "airport",
    "source": "OurAirports"
  },
  {
    "id": 210,
    "name": "Houari Boumediene Airport",
    "city": "Algier",
    "country": "Algeria",
    "iata": "ALG",
    "icao": "DAAG",
    "lat": 36.69100189208984,
    "lng": 3.215409994125366,
    "alt": 82,
    "tz_offset": "1",
    "dst": "N",
    "tz": "Africa/Algiers",
    "type": "airport",
    "source": "OurAirports"
  },
  {
    "id": 211,
    "name": "Djanet Inedbirene Airport",
    "city": "Djanet",
    "country": "Algeria",
    "iata": "DJG",
    "icao": "DAAJ",
    "lat": 24.292801,
    "lng": 9.45244,
    "alt": 3176,
    "tz_offset": "1",
    "dst": "N",
    "tz": "Africa/Algiers",
    "type": "airport",
    "source": "OurAirports"
  },
  {
    "id": 214,
    "name": "Illizi Takhamalt Airport",
    "city": "Illizi",
    "country": "Algeria",
    "iata": "VVZ",
    "icao": "DAAP",
    "lat": 26.7234992981,
    "lng": 8.62265014648,
    "alt": 1778,
    "tz_offset": "1",
    "dst": "N",
    "tz": "Africa/Algiers",
    "type": "airport",
    "source": "OurAirports"
  },
  {
    "id": 216,
    "name": "Aguenar \u2013 Hadj Bey Akhamok Airport",
    "city": "Tamanrasset",
    "country": "Algeria",
    "iata": "TMR",
    "icao": "DAAT",
    "lat": 22.8115005493,
    "lng": 5.45107984543,
    "alt": 4518,
    "tz_offset": "1",
    "dst": "N",
    "tz": "Africa/Algiers",
    "type": "airport",
    "source": "OurAirports"
  },
  {
    "id": 217,
    "name": "Jijel Ferhat Abbas Airport",
    "city": "Jijel",
    "country": "Algeria",
    "iata": "GJL",
    "icao": "DAAV",
    "lat": 36.7951011658,
    "lng": 5.87361001968,
    "alt": 36,
    "tz_offset": "1",
    "dst": "N",
    "tz": "Africa/Algiers",
    "type": "airport",
    "source": "OurAirports"
  },
  {
    "id": 218,
    "name": "Mecheria Airport",
    "city": "Mecheria",
    "country": "Algeria",
    "iata": "MZW",
    "icao": "DAAY",
    "lat": 33.535900116,
    "lng": -0.242353007197,
    "alt": 3855,
    "tz_offset": "1",
    "dst": "N",
    "tz": "Africa/Algiers",
    "type": "airport",
    "source": "OurAirports"
  },
  {
    "id": 220,
    "name": "Rabah Bitat Airport",
    "city": "Annaba",
    "country": "Algeria",
    "iata": "AAE",
    "icao": "DABB",
    "lat": 36.822201,
    "lng": 7.809174,
    "alt": 16,
    "tz_offset": "1",
    "dst": "N",
    "tz": "Africa/Algiers",
    "type": "airport",
    "source": "OurAirports"
  },
  {
    "id": 221,
    "name": "Mohamed Boudiaf International Airport",
    "city": "Constantine",
    "country": "Algeria",
    "iata": "CZL",
    "icao": "DABC",
    "lat": 36.2760009765625,
    "lng": 6.620389938354492,
    "alt": 2265,
    "tz_offset": "1",
    "dst": "N",
    "tz": "Africa/Algiers",
    "type": "airport",
    "source": "OurAirports"
  },
  {
    "id": 222,
    "name": "Cheikh Larbi T\u00e9bessi Airport",
    "city": "Tebessa",
    "country": "Algeria",
    "iata": "TEE",
    "icao": "DABS",
    "lat": 35.4315986633,
    "lng": 8.12071990967,
    "alt": 2661,
    "tz_offset": "1",
    "dst": "N",
    "tz": "Africa/Algiers",
    "type": "airport",
    "source": "OurAirports"
  },
  {
    "id": 224,
    "name": "Hassi R'Mel Airport",
    "city": "Tilrempt",
    "country": "Algeria",
    "iata": "HRM",
    "icao": "DAFH",
    "lat": 32.93040084838867,
    "lng": 3.311539888381958,
    "alt": 2540,
    "tz_offset": "1",
    "dst": "N",
    "tz": "Africa/Algiers",
    "type": "airport",
    "source": "OurAirports"
  },
  {
    "id": 225,
    "name": "Bou Chekif Airport",
    "city": "Tiaret",
    "country": "Algeria",
    "iata": "TID",
    "icao": "DAOB",
    "lat": 35.3410987854,
    "lng": 1.46315002441,
    "alt": 3245,
    "tz_offset": "1",
    "dst": "N",
    "tz": "Africa/Algiers",
    "type": "airport",
    "source": "OurAirports"
  },
  {
    "id": 227,
    "name": "Tindouf Airport",
    "city": "Tindouf",
    "country": "Algeria",
    "iata": "TIN",
    "icao": "DAOF",
    "lat": 27.7003993988,
    "lng": -8.167099952700001,
    "alt": 1453,
    "tz_offset": "1",
    "dst": "N",
    "tz": "Africa/Algiers",
    "type": "airport",
    "source": "OurAirports"
  },
  {
    "id": 228,
    "name": "Ech Cheliff Airport",
    "city": "Ech-cheliff",
    "country": "Algeria",
    "iata": "CFK",
    "icao": "DAOI",
    "lat": 36.2126998901,
    "lng": 1.33176994324,
    "alt": 463,
    "tz_offset": "1",
    "dst": "N",
    "tz": "Africa/Algiers",
    "type": "airport",
    "source": "OurAirports"
  },
  {
    "id": 229,
    "name": "Tafaraoui Airport",
    "city": "Oran",
    "country": "Algeria",
    "iata": "TAF",
    "icao": "DAOL",
    "lat": 35.54240036010742,
    "lng": -0.5322780013084412,
    "alt": 367,
    "tz_offset": "1",
    "dst": "N",
    "tz": "Africa/Algiers",
    "type": "airport",
    "source": "OurAirports"
  },
  {
    "id": 230,
    "name": "Zenata \u2013 Messali El Hadj Airport",
    "city": "Tlemcen",
    "country": "Algeria",
    "iata": "TLM",
    "icao": "DAON",
    "lat": 35.0167007446,
    "lng": -1.45000004768,
    "alt": 814,
    "tz_offset": "1",
    "dst": "N",
    "tz": "Africa/Algiers",
    "type": "airport",
    "source": "OurAirports"
  },
  {
    "id": 231,
    "name": "Es Senia Airport",
    "city": "Oran",
    "country": "Algeria",
    "iata": "ORN",
    "icao": "DAOO",
    "lat": 35.6239013672,
    "lng": -0.6211829781529999,
    "alt": 295,
    "tz_offset": "1",
    "dst": "N",
    "tz": "Africa/Algiers",
    "type": "airport",
    "source": "OurAirports"
  },
  {
    "id": 232,
    "name": "Sidi Bel Abbes Airport",
    "city": "Sidi Bel Abbes",
    "country": "Algeria",
    "iata": "BFW",
    "icao": "DAOS",
    "lat": 35.1717987061,
    "lng": -0.593275010586,
    "alt": 1614,
    "tz_offset": "1",
    "dst": "N",
    "tz": "Africa/Algiers",
    "type": "airport",
    "source": "OurAirports"
  },
  {
    "id": 233,
    "name": "Ghriss Airport",
    "city": "Ghriss",
    "country": "Algeria",
    "iata": "MUW",
    "icao": "DAOV",
    "lat": 35.207698822021484,
    "lng": 0.1471419930458068,
    "alt": 1686,
    "tz_offset": "1",
    "dst": "N",
    "tz": "Africa/Algiers",
    "type": "airport",
    "source": "OurAirports"
  },
  {
    "id": 234,
    "name": "Touat Cheikh Sidi Mohamed Belkebir Airport",
    "city": "Adrar",
    "country": "Algeria",
    "iata": "AZR",
    "icao": "DAUA",
    "lat": 27.83760070800781,
    "lng": -0.1864140033721923,
    "alt": 919,
    "tz_offset": "1",
    "dst": "N",
    "tz": "Africa/Algiers",
    "type": "airport",
    "source": "OurAirports"
  },
  {
    "id": 235,
    "name": "Biskra Airport",
    "city": "Biskra",
    "country": "Algeria",
    "iata": "BSK",
    "icao": "DAUB",
    "lat": 34.7933006287,
    "lng": 5.73823022842,
    "alt": 289,
    "tz_offset": "1",
    "dst": "N",
    "tz": "Africa/Algiers",
    "type": "airport",
    "source": "OurAirports"
  },
  {
    "id": 236,
    "name": "El Golea Airport",
    "city": "El Golea",
    "country": "Algeria",
    "iata": "ELG",
    "icao": "DAUE",
    "lat": 30.5713005065918,
    "lng": 2.8595900535583496,
    "alt": 1306,
    "tz_offset": "1",
    "dst": "N",
    "tz": "Africa/Algiers",
    "type": "airport",
    "source": "OurAirports"
  },
  {
    "id": 237,
    "name": "Noum\u00e9rat - Moufdi Zakaria Airport",
    "city": "Ghardaia",
    "country": "Algeria",
    "iata": "GHA",
    "icao": "DAUG",
    "lat": 32.38410186767578,
    "lng": 3.794110059738159,
    "alt": 1512,
    "tz_offset": "1",
    "dst": "N",
    "tz": "Africa/Algiers",
    "type": "airport",
    "source": "OurAirports"
  },
  {
    "id": 238,
    "name": "Oued Irara Airport",
    "city": "Hassi Messaoud",
    "country": "Algeria",
    "iata": "HME",
    "icao": "DAUH",
    "lat": 31.6730003357,
    "lng": 6.140439987180001,
    "alt": 463,
    "tz_offset": "1",
    "dst": "N",
    "tz": "Africa/Algiers",
    "type": "airport",
    "source": "OurAirports"
  },
  {
    "id": 239,
    "name": "In Salah Airport",
    "city": "In Salah",
    "country": "Algeria",
    "iata": "INZ",
    "icao": "DAUI",
    "lat": 27.2509994507,
    "lng": 2.51202011108,
    "alt": 896,
    "tz_offset": "1",
    "dst": "N",
    "tz": "Africa/Algiers",
    "type": "airport",
    "source": "OurAirports"
  },
  {
    "id": 240,
    "name": "Touggourt Sidi Madhi Airport",
    "city": "Touggourt",
    "country": "Algeria",
    "iata": "TGR",
    "icao": "DAUK",
    "lat": 33.06779861450195,
    "lng": 6.088669776916504,
    "alt": 279,
    "tz_offset": "1",
    "dst": "N",
    "tz": "Africa/Algiers",
    "type": "airport",
    "source": "OurAirports"
  },
  {
    "id": 241,
    "name": "Laghouat Airport",
    "city": "Laghouat",
    "country": "Algeria",
    "iata": "LOO",
    "icao": "DAUL",
    "lat": 33.7644004822,
    "lng": 2.92833995819,
    "alt": 2510,
    "tz_offset": "1",
    "dst": "N",
    "tz": "Africa/Algiers",
    "type": "airport",
    "source": "OurAirports"
  },
  {
    "id": 242,
    "name": "Timimoun Airport",
    "city": "Timimoun",
    "country": "Algeria",
    "iata": "TMX",
    "icao": "DAUT",
    "lat": 29.2371006012,
    "lng": 0.276033014059,
    "alt": 1027,
    "tz_offset": "1",
    "dst": "N",
    "tz": "Africa/Algiers",
    "type": "airport",
    "source": "OurAirports"
  },
  {
    "id": 243,
    "name": "Ain el Beida Airport",
    "city": "Ouargla",
    "country": "Algeria",
    "iata": "OGX",
    "icao": "DAUU",
    "lat": 31.917200088500977,
    "lng": 5.412779808044434,
    "alt": 492,
    "tz_offset": "1",
    "dst": "N",
    "tz": "Africa/Algiers",
    "type": "airport",
    "source": "OurAirports"
  },
  {
    "id": 244,
    "name": "In Am\u00e9nas Airport",
    "city": "Zarzaitine",
    "country": "Algeria",
    "iata": "IAM",
    "icao": "DAUZ",
    "lat": 28.0515,
    "lng": 9.64291,
    "alt": 1847,
    "tz_offset": "1",
    "dst": "N",
    "tz": "Africa/Algiers",
    "type": "airport",
    "source": "OurAirports"
  },
  {
    "id": 245,
    "name": "Cadjehoun Airport",
    "city": "Cotonou",
    "country": "Benin",
    "iata": "COO",
    "icao": "DBBB",
    "lat": 6.357230186462402,
    "lng": 2.384350061416626,
    "alt": 19,
    "tz_offset": "1",
    "dst": "N",
    "tz": "Africa/Porto-Novo",
    "type": "airport",
    "source": "OurAirports"
  },
  {
    "id": 246,
    "name": "Ouagadougou Airport",
    "city": "Ouagadougou",
    "country": "Burkina Faso",
    "iata": "OUA",
    "icao": "DFFD",
    "lat": 12.3532,
    "lng": -1.51242,
    "alt": 1037,
    "tz_offset": "0",
    "dst": "N",
    "tz": "Africa/Ouagadougou",
    "type": "airport",
    "source": "OurAirports"
  },
  {
    "id": 247,
    "name": "Bobo Dioulasso Airport",
    "city": "Bobo-dioulasso",
    "country": "Burkina Faso",
    "iata": "BOY",
    "icao": "DFOO",
    "lat": 11.160099983215332,
    "lng": -4.33096981048584,
    "alt": 1511,
    "tz_offset": "0",
    "dst": "N",
    "tz": "Africa/Ouagadougou",
    "type": "airport",
    "source": "OurAirports"
  },
  {
    "id": 248,
    "name": "Kotoka International Airport",
    "city": "Accra",
    "country": "Ghana",
    "iata": "ACC",
    "icao": "DGAA",
    "lat": 5.605189800262451,
    "lng": -0.1667860001325607,
    "alt": 205,
    "tz_offset": "0",
    "dst": "N",
    "tz": "Africa/Accra",
    "type": "airport",
    "source": "OurAirports"
  },
  {
    "id": 249,
    "name": "Tamale Airport",
    "city": "Tamale",
    "country": "Ghana",
    "iata": "TML",
    "icao": "DGLE",
    "lat": 9.55718994140625,
    "lng": -0.8632140159606934,
    "alt": 553,
    "tz_offset": "0",
    "dst": "N",
    "tz": "Africa/Accra",
    "type": "airport",
    "source": "OurAirports"
  },
  {
    "id": 251,
    "name": "Sunyani Airport",
    "city": "Sunyani",
    "country": "Ghana",
    "iata": "NYI",
    "icao": "DGSN",
    "lat": 7.361830234527588,
    "lng": -2.3287599086761475,
    "alt": 1014,
    "tz_offset": "0",
    "dst": "N",
    "tz": "Africa/Accra",
    "type": "airport",
    "source": "OurAirports"
  },
  {
    "id": 252,
    "name": "Takoradi Airport",
    "city": "Takoradi",
    "country": "Ghana",
    "iata": "TKD",
    "icao": "DGTK",
    "lat": 4.896059989929199,
    "lng": -1.7747600078582764,
    "alt": 21,
    "tz_offset": "0",
    "dst": "N",
    "tz": "Africa/Accra",
    "type": "airport",
    "source": "OurAirports"
  },
  {
    "id": 253,
    "name": "Port Bouet Airport",
    "city": "Abidjan",
    "country": "Cote d'Ivoire",
    "iata": "ABJ",
    "icao": "DIAP",
    "lat": 5.261390209197998,
    "lng": -3.9262900352478023,
    "alt": 21,
    "tz_offset": "0",
    "dst": "N",
    "tz": "Africa/Abidjan",
    "type": "airport",
    "source": "OurAirports"
  },
  {
    "id": 254,
    "name": "Bouak\u00e9 Airport",
    "city": "Bouake",
    "country": "Cote d'Ivoire",
    "iata": "BYK",
    "icao": "DIBK",
    "lat": 7.738800048828125,
    "lng": -5.073669910430908,
    "alt": 1230,
    "tz_offset": "0",
    "dst": "N",
    "tz": "Africa/Abidjan",
    "type": "airport",
    "source": "OurAirports"
  },
  {
    "id": 255,
    "name": "Daloa Airport",
    "city": "Daloa",
    "country": "Cote d'Ivoire",
    "iata": "DJO",
    "icao": "DIDL",
    "lat": 6.792809963226318,
    "lng": -6.473189830780029,
    "alt": 823,
    "tz_offset": "0",
    "dst": "N",
    "tz": "Africa/Abidjan",
    "type": "airport",
    "source": "OurAirports"
  },
  {
    "id": 256,
    "name": "Korhogo Airport",
    "city": "Korhogo",
    "country": "Cote d'Ivoire",
    "iata": "HGO",
    "icao": "DIKO",
    "lat": 9.38718032837,
    "lng": -5.55666017532,
    "alt": 1214,
    "tz_offset": "0",
    "dst": "N",
    "tz": "Africa/Abidjan",
    "type": "airport",
    "source": "OurAirports"
  },
  {
    "id": 257,
    "name": "Man Airport",
    "city": "Man",
    "country": "Cote d'Ivoire",
    "iata": "MJC",
    "icao": "DIMN",
    "lat": 7.272069931030273,
    "lng": -7.58735990524292,
    "alt": 1089,
    "tz_offset": "0",
    "dst": "N",
    "tz": "Africa/Abidjan",
    "type": "airport",
    "source": "OurAirports"
  },
  {
    "id": 258,
    "name": "San Pedro Airport",
    "city": "San Pedro",
    "country": "Cote d'Ivoire",
    "iata": "SPY",
    "icao": "DISP",
    "lat": 4.746719837188721,
    "lng": -6.660820007324219,
    "alt": 26,
    "tz_offset": "0",
    "dst": "N",
    "tz": "Africa/Abidjan",
    "type": "airport",
    "source": "OurAirports"
  },
  {
    "id": 259,
    "name": "Yamoussoukro Airport",
    "city": "Yamoussoukro",
    "country": "Cote d'Ivoire",
    "iata": "ASK",
    "icao": "DIYO",
    "lat": 6.9031701088,
    "lng": -5.36558008194,
    "alt": 699,
    "tz_offset": "0",
    "dst": "N",
    "tz": "Africa/Abidjan",
    "type": "airport",
    "source": "OurAirports"
  },
  {
    "id": 260,
    "name": "Nnamdi Azikiwe International Airport",
    "city": "Abuja",
    "country": "Nigeria",
    "iata": "ABV",
    "icao": "DNAA",
    "lat": 9.006790161132812,
    "lng": 7.263169765472412,
    "alt": 1123,
    "tz_offset": "1",
    "dst": "N",
    "tz": "Africa/Lagos",
    "type": "airport",
    "source": "OurAirports"
  },
  {
    "id": 261,
    "name": "Akure Airport",
    "city": "Akure",
    "country": "Nigeria",
    "iata": "AKR",
    "icao": "DNAK",
    "lat": 7.246739864349365,
    "lng": 5.3010101318359375,
    "alt": 1100,
    "tz_offset": "1",
    "dst": "N",
    "tz": "Africa/Lagos",
    "type": "airport",
    "source": "OurAirports"
  },
  {
    "id": 262,
    "name": "Benin Airport",
    "city": "Benin",
    "country": "Nigeria",
    "iata": "BNI",
    "icao": "DNBE",
    "lat": 6.316979885101318,
    "lng": 5.599500179290772,
    "alt": 258,
    "tz_offset": "1",
    "dst": "N",
    "tz": "Africa/Lagos",
    "type": "airport",
    "source": "OurAirports"
  },
  {
    "id": 263,
    "name": "Margaret Ekpo International Airport",
    "city": "Calabar",
    "country": "Nigeria",
    "iata": "CBQ",
    "icao": "DNCA",
    "lat": 4.976019859313965,
    "lng": 8.347200393676758,
    "alt": 210,
    "tz_offset": "1",
    "dst": "N",
    "tz": "Africa/Lagos",
    "type": "airport",
    "source": "OurAirports"
  },
  {
    "id": 264,
    "name": "Akanu Ibiam International Airport",
    "city": "Enugu",
    "country": "Nigeria",
    "iata": "ENU",
    "icao": "DNEN",
    "lat": 6.474269866943359,
    "lng": 7.561960220336914,
    "alt": 466,
    "tz_offset": "1",
    "dst": "N",
    "tz": "Africa/Lagos",
    "type": "airport",
    "source": "OurAirports"
  },
  {
    "id": 266,
    "name": "Ibadan Airport",
    "city": "Ibadan",
    "country": "Nigeria",
    "iata": "IBA",
    "icao": "DNIB",
    "lat": 7.362460136413574,
    "lng": 3.97832989692688,
    "alt": 725,
    "tz_offset": "1",
    "dst": "N",
    "tz": "Africa/Lagos",
    "type": "airport",
    "source": "OurAirports"
  },
  {
    "id": 267,
    "name": "Ilorin International Airport",
    "city": "Ilorin",
    "country": "Nigeria",
    "iata": "ILR",
    "icao": "DNIL",
    "lat": 8.440210342407227,
    "lng": 4.493919849395752,
    "alt": 1126,
    "tz_offset": "1",
    "dst": "N",
    "tz": "Africa/Lagos",
    "type": "airport",
    "source": "OurAirports"
  },
  {
    "id": 268,
    "name": "Yakubu Gowon Airport",
    "city": "Jos",
    "country": "Nigeria",
    "iata": "JOS",
    "icao": "DNJO",
    "lat": 9.639829635620115,
    "lng": 8.869050025939941,
    "alt": 4232,
    "tz_offset": "1",
    "dst": "N",
    "tz": "Africa/Lagos",
    "type": "airport",
    "source": "OurAirports"
  },
  {
    "id": 269,
    "name": "Kaduna Airport",
    "city": "Kaduna",
    "country": "Nigeria",
    "iata": "KAD",
    "icao": "DNKA",
    "lat": 10.696000099182127,
    "lng": 7.320109844207764,
    "alt": 2073,
    "tz_offset": "1",
    "dst": "N",
    "tz": "Africa/Lagos",
    "type": "airport",
    "source": "OurAirports"
  },
  {
    "id": 270,
    "name": "Mallam Aminu International Airport",
    "city": "Kano",
    "country": "Nigeria",
    "iata": "KAN",
    "icao": "DNKN",
    "lat": 12.0476,
    "lng": 8.52462,
    "alt": 1562,
    "tz_offset": "1",
    "dst": "N",
    "tz": "Africa/Lagos",
    "type": "airport",
    "source": "OurAirports"
  },
  {
    "id": 271,
    "name": "Maiduguri International Airport",
    "city": "Maiduguri",
    "country": "Nigeria",
    "iata": "MIU",
    "icao": "DNMA",
    "lat": 11.855299949645996,
    "lng": 13.080900192260742,
    "alt": 1099,
    "tz_offset": "1",
    "dst": "N",
    "tz": "Africa/Lagos",
    "type": "airport",
    "source": "OurAirports"
  },
  {
    "id": 272,
    "name": "Makurdi Airport",
    "city": "Makurdi",
    "country": "Nigeria",
    "iata": "MDI",
    "icao": "DNMK",
    "lat": 7.70388,
    "lng": 8.61394,
    "alt": 371,
    "tz_offset": "1",
    "dst": "N",
    "tz": "Africa/Lagos",
    "type": "airport",
    "source": "OurAirports"
  },
  {
    "id": 273,
    "name": "Murtala Muhammed International Airport",
    "city": "Lagos",
    "country": "Nigeria",
    "iata": "LOS",
    "icao": "DNMM",
    "lat": 6.5773701667785645,
    "lng": 3.321160078048706,
    "alt": 135,
    "tz_offset": "1",
    "dst": "N",
    "tz": "Africa/Lagos",
    "type": "airport",
    "source": "OurAirports"
  },
  {
    "id": 274,
    "name": "Minna Airport",
    "city": "Minna",
    "country": "Nigeria",
    "iata": "MXJ",
    "icao": "DNMN",
    "lat": 9.652170181274414,
    "lng": 6.462259769439697,
    "alt": 834,
    "tz_offset": "1",
    "dst": "N",
    "tz": "Africa/Lagos",
    "type": "airport",
    "source": "OurAirports"
  },
  {
    "id": 275,
    "name": "Port Harcourt International Airport",
    "city": "Port Hartcourt",
    "country": "Nigeria",
    "iata": "PHC",
    "icao": "DNPO",
    "lat": 5.0154900550842285,
    "lng": 6.94959020614624,
    "alt": 87,
    "tz_offset": "1",
    "dst": "N",
    "tz": "Africa/Lagos",
    "type": "airport",
    "source": "OurAirports"
  },
  {
    "id": 276,
    "name": "Sadiq Abubakar III International Airport",
    "city": "Sokoto",
    "country": "Nigeria",
    "iata": "SKO",
    "icao": "DNSO",
    "lat": 12.916299819946287,
    "lng": 5.207190036773682,
    "alt": 1010,
    "tz_offset": "1",
    "dst": "N",
    "tz": "Africa/Lagos",
    "type": "airport",
    "source": "OurAirports"
  },
  {
    "id": 277,
    "name": "Yola Airport",
    "city": "Yola",
    "country": "Nigeria",
    "iata": "YOL",
    "icao": "DNYO",
    "lat": 9.257550239562988,
    "lng": 12.430399894714355,
    "alt": 599,
    "tz_offset": "1",
    "dst": "N",
    "tz": "Africa/Lagos",
    "type": "airport",
    "source": "OurAirports"
  },
  {
    "id": 278,
    "name": "Zaria Airport",
    "city": "Zaria",
    "country": "Nigeria",
    "iata": "ZAR",
    "icao": "DNZA",
    "lat": 11.1302,
    "lng": 7.68581,
    "alt": 2170,
    "tz_offset": "1",
    "dst": "N",
    "tz": "Africa/Lagos",
    "type": "airport",
    "source": "OurAirports"
  },
  {
    "id": 279,
    "name": "Maradi Airport",
    "city": "Maradi",
    "country": "Niger",
    "iata": "MFQ",
    "icao": "DRRM",
    "lat": 13.5024995803833,
    "lng": 7.1267499923706055,
    "alt": 1240,
    "tz_offset": "1",
    "dst": "N",
    "tz": "Africa/Niamey",
    "type": "airport",
    "source": "OurAirports"
  },
  {
    "id": 280,
    "name": "Diori Hamani International Airport",
    "city": "Niamey",
    "country": "Niger",
    "iata": "NIM",
    "icao": "DRRN",
    "lat": 13.4815,
    "lng": 2.18361,
    "alt": 732,
    "tz_offset": "1",
    "dst": "N",
    "tz": "Africa/Niamey",
    "type": "airport",
    "source": "OurAirports"
  },
  {
    "id": 281,
    "name": "Tahoua Airport",
    "city": "Tahoua",
    "country": "Niger",
    "iata": "THZ",
    "icao": "DRRT",
    "lat": 14.875699996948242,
    "lng": 5.265359878540039,
    "alt": 1266,
    "tz_offset": "1",
    "dst": "N",
    "tz": "Africa/Niamey",
    "type": "airport",
    "source": "OurAirports"
  },
  {
    "id": 282,
    "name": "Mano Dayak International Airport",
    "city": "Agadez",
    "country": "Niger",
    "iata": "AJY",
    "icao": "DRZA",
    "lat": 16.965999603271484,
    "lng": 8.000109672546387,
    "alt": 1657,
    "tz_offset": "1",
    "dst": "N",
    "tz": "Africa/Niamey",
    "type": "airport",
    "source": "OurAirports"
  },
  {
    "id": 285,
    "name": "Zinder Airport",
    "city": "Zinder",
    "country": "Niger",
    "iata": "ZND",
    "icao": "DRZR",
    "lat": 13.779000282287598,
    "lng": 8.983759880065918,
    "alt": 1516,
    "tz_offset": "1",
    "dst": "N",
    "tz": "Africa/Niamey",
    "type": "airport",
    "source": "OurAirports"
  },
  {
    "id": 286,
    "name": "Monastir Habib Bourguiba International Airport",
    "city": "Monastir",
    "country": "Tunisia",
    "iata": "MIR",
    "icao": "DTMB",
    "lat": 35.75809860229492,
    "lng": 10.75469970703125,
    "alt": 9,
    "tz_offset": "1",
    "dst": "E",
    "tz": "Africa/Tunis",
    "type": "airport",
    "source": "OurAirports"
  },
  {
    "id": 287,
    "name": "Tunis Carthage International Airport",
    "city": "Tunis",
    "country": "Tunisia",
    "iata": "TUN",
    "icao": "DTTA",
    "lat": 36.85100173950195,
    "lng": 10.22719955444336,
    "alt": 22,
    "tz_offset": "1",
    "dst": "E",
    "tz": "Africa/Tunis",
    "type": "airport",
    "source": "OurAirports"
  },
  {
    "id": 290,
    "name": "Gafsa Ksar International Airport",
    "city": "Gafsa",
    "country": "Tunisia",
    "iata": "GAF",
    "icao": "DTTF",
    "lat": 34.422000885009766,
    "lng": 8.822500228881836,
    "alt": 1060,
    "tz_offset": "1",
    "dst": "E",
    "tz": "Africa/Tunis",
    "type": "airport",
    "source": "OurAirports"
  },
  {
    "id": 291,
    "name": "Gab\u00e8s Matmata International Airport",
    "city": "Gabes",
    "country": "Tunisia",
    "iata": "GAE",
    "icao": "DTTG",
    "lat": 33.87689971923828,
    "lng": 10.103300094604492,
    "alt": 26,
    "tz_offset": "1",
    "dst": "E",
    "tz": "Africa/Tunis",
    "type": "airport",
    "source": "OurAirports"
  },
  {
    "id": 293,
    "name": "Djerba Zarzis International Airport",
    "city": "Djerba",
    "country": "Tunisia",
    "iata": "DJE",
    "icao": "DTTJ",
    "lat": 33.875,
    "lng": 10.775500297546388,
    "alt": 19,
    "tz_offset": "1",
    "dst": "E",
    "tz": "Africa/Tunis",
    "type": "airport",
    "source": "OurAirports"
  },
  {
    "id": 294,
    "name": "El Borma Airport",
    "city": "El Borma",
    "country": "Tunisia",
    "iata": "EBM",
    "icao": "DTTR",
    "lat": 31.70429992675781,
    "lng": 9.254619598388672,
    "alt": 827,
    "tz_offset": "1",
    "dst": "E",
    "tz": "Africa/Tunis",
    "type": "airport",
    "source": "OurAirports"
  },
  {
    "id": 295,
    "name": "Sfax Thyna International Airport",
    "city": "Sfax",
    "country": "Tunisia",
    "iata": "SFA",
    "icao": "DTTX",
    "lat": 34.71799850463867,
    "lng": 10.690999984741213,
    "alt": 85,
    "tz_offset": "1",
    "dst": "E",
    "tz": "Africa/Tunis",
    "type": "airport",
    "source": "OurAirports"
  },
  {
    "id": 296,
    "name": "Tozeur Nefta International Airport",
    "city": "Tozeur",
    "country": "Tunisia",
    "iata": "TOE",
    "icao": "DTTZ",
    "lat": 33.939701080322266,
    "lng": 8.110560417175293,
    "alt": 287,
    "tz_offset": "1",
    "dst": "E",
    "tz": "Africa/Tunis",
    "type": "airport",
    "source": "OurAirports"
  },
  {
    "id": 297,
    "name": "Niamtougou International Airport",
    "city": "Niatougou",
    "country": "Togo",
    "iata": "LRL",
    "icao": "DXNG",
    "lat": 9.767330169677734,
    "lng": 1.091249942779541,
    "alt": 1515,
    "tz_offset": "0",
    "dst": "N",
    "tz": "Africa/Lome",
    "type": "airport",
    "source": "OurAirports"
  },
  {
    "id": 298,
    "name": "Lom\u00e9-Tokoin Airport",
    "city": "Lome",
    "country": "Togo",
    "iata": "LFW",
    "icao": "DXXX",
    "lat": 6.165609836578369,
    "lng": 1.2545100450515747,
    "alt": 72,
    "tz_offset": "0",
    "dst": "N",
    "tz": "Africa/Lome",
    "type": "airport",
    "source": "OurAirports"
  },
  {
    "id": 299,
    "name": "Antwerp International Airport (Deurne)",
    "city": "Antwerp",
    "country": "Belgium",
    "iata": "ANR",
    "icao": "EBAW",
    "lat": 51.1893997192,
    "lng": 4.46027994156,
    "alt": 39,
    "tz_offset": "1",
    "dst": "E",
    "tz": "Europe/Brussels",
    "type": "airport",
    "source": "OurAirports"
  },
  {
    "id": 302,
    "name": "Brussels Airport",
    "city": "Brussels",
    "country": "Belgium",
    "iata": "BRU",
    "icao": "EBBR",
    "lat": 50.9014015198,
    "lng": 4.48443984985,
    "alt": 184,
    "tz_offset": "1",
    "dst": "E",
    "tz": "Europe/Brussels",
    "type": "airport",
    "source": "OurAirports"
  },
  {
    "id": 304,
    "name": "Brussels South Charleroi Airport",
    "city": "Charleroi",
    "country": "Belgium",
    "iata": "CRL",
    "icao": "EBCI",
    "lat": 50.459202,
    "lng": 4.45382,
    "alt": 614,
    "tz_offset": "1",
    "dst": "E",
    "tz": "Europe/Brussels",
    "type": "airport",
    "source": "OurAirports"
  },
  {
    "id": 308,
    "name": "Wevelgem Airport",
    "city": "Kortrijk-vevelgem",
    "country": "Belgium",
    "iata": "KJK",
    "icao": "EBKT",
    "lat": 50.817199707,
    "lng": 3.20472002029,
    "alt": 64,
    "tz_offset": "1",
    "dst": "E",
    "tz": "Europe/Brussels",
    "type": "airport",
    "source": "OurAirports"
  },
  {
    "id": 309,
    "name": "Li\u00e8ge Airport",
    "city": "Liege",
    "country": "Belgium",
    "iata": "LGG",
    "icao": "EBLG",
    "lat": 50.63740158081055,
    "lng": 5.443220138549805,
    "alt": 659,
    "tz_offset": "1",
    "dst": "E",
    "tz": "Europe/Brussels",
    "type": "airport",
    "source": "OurAirports"
  },
  {
    "id": 310,
    "name": "Ostend-Bruges International Airport",
    "city": "Ostend",
    "country": "Belgium",
    "iata": "OST",
    "icao": "EBOS",
    "lat": 51.1988983154,
    "lng": 2.8622200489,
    "alt": 13,
    "tz_offset": "1",
    "dst": "E",
    "tz": "Europe/Brussels",
    "type": "airport",
    "source": "OurAirports"
  },
  {
    "id": 316,
    "name": "Zoersel (Oostmalle) Airfield",
    "city": "Zoersel",
    "country": "Belgium",
    "iata": "OBL",
    "icao": "EBZR",
    "lat": 51.264702,
    "lng": 4.75333,
    "alt": 53,
    "tz_offset": "1",
    "dst": "E",
    "tz": "Europe/Brussels",
    "type": "airport",
    "source": "OurAirports"
  },
  {
    "id": 318,
    "name": "Altenburg-Nobitz Airport",
    "city": "Altenburg",
    "country": "Germany",
    "iata": "AOC",
    "icao": "EDAC",
    "lat": 50.981945,
    "lng": 12.506389,
    "alt": 640,
    "tz_offset": "1",
    "dst": "E",
    "tz": "Europe/Berlin",
    "type": "airport",
    "source": "OurAirports"
  },
  {
    "id": 325,
    "name": "Riesa-G\u00f6hlis Airport",
    "city": "Riesa",
    "country": "Germany",
    "iata": "IES",
    "icao": "EDAU",
    "lat": 51.2936096191,
    "lng": 13.3561105728,
    "alt": 322,
    "tz_offset": "1",
    "dst": "E",
    "tz": "Europe/Berlin",
    "type": "airport",
    "source": "OurAirports"
  },
  {
    "id": 326,
    "name": "Rechlin-L\u00e4rz Airport",
    "city": "Rechlin-laerz",
    "country": "Germany",
    "iata": "REB",
    "icao": "EDAX",
    "lat": 53.306388855,
    "lng": 12.7522220612,
    "alt": 220,
    "tz_offset": "1",
    "dst": "E",
    "tz": "Europe/Berlin",
    "type": "airport",
    "source": "OurAirports"
  },
  {
    "id": 328,
    "name": "Sch\u00f6nhagen Airport",
    "city": "Schoenhagen",
    "country": "Germany",
    "iata": "QXH",
    "icao": "EDAZ",
    "lat": 52.203609,
    "lng": 13.156389,
    "alt": 152,
    "tz_offset": "1",
    "dst": "E",
    "tz": "Europe/Berlin",
    "type": "airport",
    "source": "OurAirports"
  },